city,city_ascii,lat,lng,country,iso2,iso3,admin_name,capital,population,id
Tokyo,Tokyo,35.6870,139.7495,Japan,JP,JPN,Tōkyō,primary,37785000,1392685764
Jakarta,Jakarta,-6.1750,106.8275,Indonesia,ID,IDN,Jakarta,primary,33756000,1360771077
Delhi,Delhi,28.6100,77.2300,India,IN,IND,Delhi,admin,32226000,1356872604
Guangzhou,Guangzhou,23.1300,113.2600,China,CN,CHN,Guangdong,admin,26940000,1156237133
Mumbai,Mumbai,19.0761,72.8775,India,IN,IND,Mahārāshtra,admin,24973000,1356226629
Manila,Manila,14.5958,120.9772,Philippines,PH,PHL,Manila,primary,24922000,1608618140
Shanghai,Shanghai,31.2286,121.4747,China,CN,CHN,Shanghai,admin,24073000,1156073548
São Paulo,Sao Paulo,-23.5504,-46.6339,Brazil,BR,BRA,São Paulo,admin,23086000,1076532519
Seoul,Seoul,37.5667,126.9833,"Korea, South",KR,KOR,Seoul,primary,23016000,1410836482
Mexico City,Mexico City,19.4333,-99.1333,Mexico,MX,MEX,Ciudad de México,primary,21804000,1484247881
Kolkāta,Kolkata,22.5675,88.3700,India,IN,IND,West Bengal,admin,21747000,1356060520
Cairo,Cairo,30.0444,31.2358,Egypt,EG,EGY,Al Qāhirah,primary,20296000,1818253931
Karachi,Karachi,24.8600,67.0100,Pakistan,PK,PAK,Sindh,admin,20249000,1586129469
Dhaka,Dhaka,23.7289,90.3944,Bangladesh,BD,BGD,Dhaka,primary,19134000,1050529279
New York,New York,40.6943,-73.9249,United States,US,USA,New York,,18832416,1840034016
Beijing,Beijing,39.9067,116.3975,China,CN,CHN,Beijing,primary,18522000,1156228865
Bangkok,Bangkok,13.7525,100.4942,Thailand,TH,THA,Krung Thep Maha Nakhon,primary,18007000,1764068610
Shenzhen,Shenzhen,22.5415,114.0596,China,CN,CHN,Guangdong,minor,17619000,1156158707
Moscow,Moscow,55.7506,37.6175,Russia,RU,RUS,Moskva,primary,17332000,1643318494
Buenos Aires,Buenos Aires,-34.6036,-58.3814,Argentina,AR,ARG,"Buenos Aires, Ciudad Autónoma de",primary,16710000,1032717330
Lagos,Lagos,6.4550,3.3841,Nigeria,NG,NGA,Lagos,minor,16637000,1566593751
Bangalore,Bangalore,12.9789,77.5917,India,IN,IND,Karnātaka,admin,15386000,1356410365
Ho Chi Minh City,Ho Chi Minh City,10.7756,106.7019,Vietnam,VN,VNM,Hồ Chí Minh,admin,15136000,1704774326
Ōsaka,Osaka,34.6939,135.5022,Japan,JP,JPN,Ōsaka,admin,15126000,1392419823
Chengdu,Chengdu,30.6600,104.0633,China,CN,CHN,Sichuan,admin,14645000,1156421555
Istanbul,Istanbul,41.0136,28.9550,Turkey,TR,TUR,İstanbul,admin,14441000,1792756324
Tehran,Tehran,35.6889,51.3897,Iran,IR,IRN,Tehrān,primary,14148000,1364305026
Kinshasa,Kinshasa,-4.3219,15.3119,Congo (Kinshasa),CD,COD,Kinshasa,primary,12836000,1180000363
Rio de Janeiro,Rio de Janeiro,-22.9111,-43.2056,Brazil,BR,BRA,Rio de Janeiro,admin,12592000,1076887657
Chennai,Chennai,13.0825,80.2750,India,IN,IND,Tamil Nādu,admin,12395000,1356374944
Xi’an,Xi'an,34.2611,108.9422,China,CN,CHN,Shaanxi,admin,12328000,1156244079
Lahore,Lahore,31.5497,74.3436,Pakistan,PK,PAK,Punjab,admin,12306000,1586801463
Chongqing,Chongqing,29.5637,106.5504,China,CN,CHN,Chongqing,admin,12135000,1156936556
Los Angeles,Los Angeles,34.1141,-118.4068,United States,US,USA,California,,11885717,1840020491
London,London,51.5072,-0.1275,United Kingdom,GB,GBR,"London, City of",primary,11262000,1826645935
Paris,Paris,48.8567,2.3522,France,FR,FRA,Île-de-France,primary,11060000,1250015082
Linyi,Linyi,35.1038,118.3564,China,CN,CHN,Shandong,,10820000,1156086320
Dongguan,Dongguan,23.0210,113.7520,China,CN,CHN,Guangdong,minor,10646000,1156478242
Baoding,Baoding,38.8740,115.4640,China,CN,CHN,Hebei,minor,10546831,1156256829
Hyderābād,Hyderabad,17.3617,78.4747,India,IN,IND,Telangāna,admin,10494000,1356871768
Tianjin,Tianjin,39.1336,117.2054,China,CN,CHN,Tianjin,admin,10368000,1156174046
Lima,Lima,-12.0600,-77.0375,Peru,PE,PER,Lima,primary,10320000,1604728603
Wuhan,Wuhan,30.5934,114.3046,China,CN,CHN,Hubei,admin,10251000,1156117184
Nanyang,Nanyang,32.9902,112.5285,China,CN,CHN,Henan,,9577771,1156192287
Hangzhou,Hangzhou,30.2670,120.1530,China,CN,CHN,Zhejiang,admin,9523000,1156275243
Nagoya,Nagoya,35.1833,136.9000,Japan,JP,JPN,Aichi,admin,9197000,1392407472
Luanda,Luanda,-8.8383,13.2344,Angola,AO,AGO,Luanda,primary,9051000,1024949724
Foshan,Foshan,23.0214,113.1216,China,CN,CHN,Guangdong,minor,9042500,1156738403
Kuala Lumpur,Kuala Lumpur,3.1686,101.6980,Malaysia,MY,MYS,Kuala Lumpur,primary,8911000,1458988644
Zhoukou,Zhoukou,33.6367,114.7014,China,CN,CHN,Henan,minor,8677800,1156272098
Tongshan,Tongshan,34.2610,117.1859,China,CN,CHN,Jiangsu,minor,8669000,1156241678
Hanoi,Hanoi,21.0000,105.8500,Vietnam,VN,VNM,Hà Nội,primary,8587100,1704413791
Chicago,Chicago,41.8375,-87.6866,United States,US,USA,Illinois,,8489066,1840000494
Nanjing,Nanjing,32.0608,118.7789,China,CN,CHN,Jiangsu,admin,8422000,1156644065
Heze,Heze,35.2343,115.4796,China,CN,CHN,Shandong,minor,8287693,1156225008
Pune,Pune,18.5203,73.8567,India,IN,IND,Mahārāshtra,,8231000,1356081074
Jining,Jining,35.4151,116.5871,China,CN,CHN,Shandong,,8081905,1156504601
Bogotá,Bogota,4.7111,-74.0722,Colombia,CO,COL,Bogotá,primary,8034649,1170483426
Ahmedabad,Ahmedabad,23.0225,72.5714,India,IN,IND,Gujarāt,minor,8009000,1356304381
Shenyang,Shenyang,41.8025,123.4281,China,CN,CHN,Liaoning,admin,7964000,1156309382
Dar es Salaam,Dar es Salaam,-6.8161,39.2803,Tanzania,TZ,TZA,Dar es Salaam,admin,7962000,1834843853
Khartoum,Khartoum,15.6031,32.5265,Sudan,SD,SDN,Khartoum,primary,7869000,1729268475
Johannesburg,Johannesburg,-26.2044,28.0456,South Africa,ZA,ZAF,Gauteng,admin,7860781,1710550792
Fuyang,Fuyang,32.8900,115.8140,China,CN,CHN,Anhui,,7599913,1156248008
Hong Kong,Hong Kong,22.3000,114.2000,Hong Kong,HK,HKG,,primary,7450000,1344982653
Ganzhou,Ganzhou,25.8310,114.9330,China,CN,CHN,Jiangxi,minor,7396873,1156832475
Shangqiu,Shangqiu,34.4150,115.6560,China,CN,CHN,Henan,,7325300,1156805441
Cangzhou,Cangzhou,38.3047,116.8387,China,CN,CHN,Hebei,minor,7300783,1156698069
Riyadh,Riyadh,24.6500,46.7100,Saudi Arabia,SA,SAU,Ar Riyāḑ,primary,7237000,1682999334
Santiago,Santiago,-33.4372,-70.6506,Chile,CL,CHL,Región Metropolitana,primary,7171000,1152554349
Zhumadian,Zhumadian,33.0140,114.0220,China,CN,CHN,Henan,,7008427,1156184822
Zhanjiang,Zhanjiang,21.2701,110.3575,China,CN,CHN,Guangdong,minor,6981236,1156502170
Rangoon,Rangoon,16.7950,96.1600,Burma,MM,MMR,Yangon,primary,6874000,1104616656
Yancheng,Yancheng,33.3500,120.1569,China,CN,CHN,Jiangsu,minor,6709629,1156995410
Bijie,Bijie,27.2840,105.2920,China,CN,CHN,Guizhou,,6686100,1156018927
Xingtai,Xingtai,37.0717,114.5048,China,CN,CHN,Hebei,minor,6645766,1156294952
Hengyang,Hengyang,26.8940,112.5720,China,CN,CHN,Hunan,,6645243,1156696884
Shaoyang,Shaoyang,27.2395,111.4679,China,CN,CHN,Hunan,,6563520,1156310366
Surabaya,Surabaya,-7.2458,112.7378,Indonesia,ID,IDN,Jawa Timur,admin,6556000,1360484663
Sūrat,Surat,21.2050,72.8400,India,IN,IND,Gujarāt,,6538000,1356758738
Quanzhou,Quanzhou,24.8744,118.6757,China,CN,CHN,Fujian,minor,6480000,1156829655
Shangrao,Shangrao,28.4551,117.9431,China,CN,CHN,Jiangxi,minor,6435300,1156405492
Zunyi,Zunyi,27.7220,107.0310,China,CN,CHN,Guizhou,,6270700,1156539782
Madrid,Madrid,40.4169,-3.7033,Spain,ES,ESP,Madrid,primary,6211000,1724616994
Baghdad,Baghdad,33.3153,44.3661,Iraq,IQ,IRQ,Baghdād,primary,6183000,1368596238
Maoming,Maoming,21.6627,110.9255,China,CN,CHN,Guangdong,minor,6174050,1156568722
Miami,Miami,25.7840,-80.2101,United States,US,USA,Florida,,6113982,1840015149
Xinyang,Xinyang,32.1490,114.0910,China,CN,CHN,Henan,,6109106,1156273453
Houston,Houston,29.7860,-95.3885,United States,US,USA,Texas,,6046392,1840020925
Singapore,Singapore,1.3000,103.8000,Singapore,SG,SGP,,primary,5983000,1702341327
Prayagraj,Prayagraj,25.4358,81.8464,India,IN,IND,Uttar Pradesh,,5954391,1356718332
Huanggang,Huanggang,30.4537,114.8724,China,CN,CHN,Hubei,minor,5882719,1156200037
Dalian,Dalian,38.9000,121.6000,China,CN,CHN,Liaoning,,5871474,1156175472
Ankara,Ankara,39.9300,32.8500,Turkey,TR,TUR,Ankara,primary,5864049,1792572891
Dallas,Dallas,32.7935,-96.7667,United States,US,USA,Texas,,5843632,1840019440
Qingdao,Qingdao,36.0669,120.3827,China,CN,CHN,Shandong,minor,5818255,1156112588
Yulin,Yulin,22.6540,110.1810,China,CN,CHN,Guangxi,minor,5796766,1156901312
Liaocheng,Liaocheng,36.4559,115.9852,China,CN,CHN,Shandong,minor,5789863,1156006600
Douala,Douala,4.0500,9.7000,Cameroon,CM,CMR,Littoral,admin,5768400,1120494607
Qujing,Qujing,25.4910,103.7960,China,CN,CHN,Yunnan,,5765775,1156747998
Nangandao,Nangandao,35.3036,113.9268,China,CN,CHN,Henan,minor,5708191,1156127660
Addis Ababa,Addis Ababa,9.0300,38.7400,Ethiopia,ET,ETH,Ādīs Ābeba,primary,5704000,1231824991
Philadelphia,Philadelphia,40.0077,-75.1339,United States,US,USA,Pennsylvania,,5696588,1840000673
Toronto,Toronto,43.7417,-79.3733,Canada,CA,CAN,Ontario,admin,5647656,1124279679
Zhengzhou,Zhengzhou,34.7640,113.6840,China,CN,CHN,Henan,admin,5621593,1156183137
Nanchong,Nanchong,30.8372,106.1106,China,CN,CHN,Sichuan,minor,5607565,1156762337
Jinan,Jinan,36.6702,117.0207,China,CN,CHN,Shandong,admin,5606374,1156972469
Giza,Giza,29.9870,31.2118,Egypt,EG,EGY,Al Jīzah,admin,5598402,1818925479
Saint Petersburg,Saint Petersburg,59.9375,30.3086,Russia,RU,RUS,Sankt-Peterburg,admin,5597763,1643616350
Jieyang,Jieyang,23.5510,116.3727,China,CN,CHN,Guangdong,minor,5577814,1156260378
Dezhou,Dezhou,37.4360,116.3590,China,CN,CHN,Shandong,minor,5568235,1156524080
Nairobi,Nairobi,-1.2864,36.8172,Kenya,KE,KEN,Nairobi City,primary,5545000,1404000661
Guadalajara,Guadalajara,20.6767,-103.3475,Mexico,MX,MEX,Jalisco,admin,5525000,1484950208
Tai’an,Tai'an,36.2020,117.0870,China,CN,CHN,Shandong,,5472217,1156095188
Dazhou,Dazhou,31.2093,107.4678,China,CN,CHN,Sichuan,minor,5385422,1156834076
Belo Horizonte,Belo Horizonte,-19.9281,-43.9419,Brazil,BR,BRA,Minas Gerais,admin,5328000,1076967355
Suzhou,Suzhou,33.6480,116.9640,China,CN,CHN,Anhui,,5324476,1156871297
Monterrey,Monterrey,25.6844,-100.3181,Mexico,MX,MEX,Nuevo León,admin,5324281,1484559591
Yongzhou,Yongzhou,26.4200,111.6130,China,CN,CHN,Hunan,,5289824,1156694479
Changde,Changde,29.0310,111.6990,China,CN,CHN,Hunan,minor,5279102,1156449091
Xiangyang,Xiangyang,32.0100,112.1220,China,CN,CHN,Hubei,minor,5260951,1156107325
Atlanta,Atlanta,33.7628,-84.4220,United States,US,USA,Georgia,admin,5211164,1840013660
Pudong,Pudong,31.2347,121.5064,China,CN,CHN,Shanghai,minor,5187200,1156644508
Washington,Washington,38.9047,-77.0163,United States,US,USA,District of Columbia,primary,5146120,1840006060
Zhaotong,Zhaotong,27.3380,103.7170,China,CN,CHN,Yunnan,,5092611,1156924687
Zhangzhou,Zhangzhou,24.5130,117.6470,China,CN,CHN,Fujian,minor,5054328,1156241637
Yueyang,Yueyang,29.3647,113.1309,China,CN,CHN,Hunan,minor,5051922,1156586314
Melbourne,Melbourne,-37.8142,144.9631,Australia,AU,AUS,Victoria,admin,5031195,1036533631
Yichun,Yichun,27.8160,114.4170,China,CN,CHN,Jiangxi,minor,5007702,1156229590
Abidjan,Abidjan,5.3364,-4.0267,Côte d’Ivoire,CI,CIV,Abidjan,primary,4980000,1384207980
Guilin,Guilin,25.2750,110.2960,China,CN,CHN,Guangxi,minor,4931137,1156235364
Pingdingshan,Pingdingshan,33.7666,113.1926,China,CN,CHN,Henan,,4904701,1156735124
Alexandria,Alexandria,31.1975,29.8925,Egypt,EG,EGY,Al Iskandarīyah,admin,4870000,1818695837
Bozhou,Bozhou,33.8463,115.7786,China,CN,CHN,Anhui,,4850657,1156356860
Sydney,Sydney,-33.8667,151.2000,Australia,AU,AUS,New South Wales,admin,4840600,1036074917
Barcelona,Barcelona,41.3833,2.1833,Spain,ES,ESP,Catalonia,admin,4800000,1724594040
Yuncheng,Yuncheng,35.0267,111.0070,China,CN,CHN,Shanxi,,4774508,1156705644
Cape Town,Cape Town,-33.9253,18.4239,South Africa,ZA,ZAF,Western Cape,primary,4770313,1710680650
Changsha,Changsha,28.2280,112.9390,China,CN,CHN,Hunan,admin,4766296,1156961497
Suqian,Suqian,33.9630,118.2750,China,CN,CHN,Jiangsu,,4719178,1156212349
Jeddah,Jeddah,21.5428,39.1728,Saudi Arabia,SA,SAU,Makkah al Mukarramah,,4697000,1682926944
Weinan,Weinan,34.5206,109.4710,China,CN,CHN,Shaanxi,minor,4688744,1156903687
Berlin,Berlin,52.5200,13.4050,Germany,DE,DEU,Berlin,primary,4679500,1276451290
Chenzhou,Chenzhou,25.7700,113.0160,China,CN,CHN,Hunan,minor,4667134,1156291915
Jiangmen,Jiangmen,22.5789,113.0815,China,CN,CHN,Guangdong,minor,4630300,1156105613
Mianyang,Mianyang,31.4680,104.6790,China,CN,CHN,Sichuan,minor,4613862,1156417758
Jiujiang,Jiujiang,29.6610,115.9540,China,CN,CHN,Jiangxi,minor,4600276,1156206041
Huaihua,Huaihua,27.5698,110.0016,China,CN,CHN,Hunan,,4587594,1156353465
Huanglongsi,Huanglongsi,34.7950,114.3450,China,CN,CHN,Henan,,4564900,1156198356
Taizhou,Taizhou,32.4567,119.9229,China,CN,CHN,Jiangsu,minor,4512762,1156119229
Belāhi,Belahi,26.4000,86.2500,India,IN,IND,Bihār,,4487379,1356614886
Yibin,Yibin,28.7520,104.6430,China,CN,CHN,Sichuan,minor,4471896,1156107603
Ji’an,Ji'an,27.0912,114.9668,China,CN,CHN,Jiangxi,minor,4469176,1156278215
Yangzhou,Yangzhou,32.3944,119.4128,China,CN,CHN,Jiangsu,,4459760,1156818601
Kunming,Kunming,25.0464,102.7094,China,CN,CHN,Yunnan,admin,4422686,1156477539
Changchun,Changchun,43.8970,125.3260,China,CN,CHN,Jilin,admin,4408154,1156078103
Lu’an,Lu'an,31.7360,116.5200,China,CN,CHN,Anhui,minor,4393699,1156499624
Xinpu,Xinpu,34.5966,119.2214,China,CN,CHN,Jiangsu,minor,4393482,1156035381
Langfang,Langfang,39.5383,116.6835,China,CN,CHN,Hebei,minor,4358839,1156109017
Boston,Boston,42.3188,-71.0852,United States,US,USA,Massachusetts,admin,4355184,1840000455
Ürümqi,Urumqi,43.8225,87.6125,China,CN,CHN,Xinjiang,admin,4335017,1156051276
Suzhou,Suzhou,31.3000,120.6194,China,CN,CHN,Jiangsu,minor,4330000,1156029196
Guigang,Guigang,23.1120,109.5990,China,CN,CHN,Guangxi,minor,4316262,1156895251
Shantou,Shantou,23.3540,116.6820,China,CN,CHN,Guangdong,minor,4312192,1156457499
Jiangguanchi,Jiangguanchi,34.0370,113.8520,China,CN,CHN,Henan,minor,4307488,1156235735
Kabul,Kabul,34.5253,69.1783,Afghanistan,AF,AFG,Kābul,primary,4273156,1004993580
Xiaoganzhan,Xiaoganzhan,30.9180,113.9570,China,CN,CHN,Hubei,,4270371,1156002290
Bamako,Bamako,12.6458,-7.9922,Mali,ML,MLI,Bamako,primary,4227569,1466965925
Kano,Kano,12.0000,8.5167,Nigeria,NG,NGA,Kano,admin,4224966,1566422868
Luzhou,Luzhou,28.8710,105.4420,China,CN,CHN,Sichuan,minor,4218427,1156582079
Hefei,Hefei,31.8206,117.2273,China,CN,CHN,Anhui,admin,4216940,1156332710
Hengshui,Hengshui,37.7390,115.6690,China,CN,CHN,Hebei,minor,4212933,1156803028
Fortaleza,Fortaleza,-3.7275,-38.5275,Brazil,BR,BRA,Ceará,admin,4167996,1076567885
Anqing,Anqing,30.5318,117.1153,China,CN,CHN,Anhui,minor,4165284,1156238875
Zhangjiakou,Zhangjiakou,40.7690,114.8860,China,CN,CHN,Hebei,minor,4118908,1156800221
Zhaoqing,Zhaoqing,23.0500,112.4667,China,CN,CHN,Guangdong,minor,4113594,1156170144
Shijiazhuang,Shijiazhuang,38.0425,114.5100,China,CN,CHN,Hebei,admin,4098243,1156217541
Ningbo,Ningbo,29.8603,121.6245,China,CN,CHN,Zhejiang,minor,4087523,1156170787
Qiqihar,Qiqihar,47.3549,123.9182,China,CN,CHN,Heilongjiang,minor,4067489,1156775905
Phoenix,Phoenix,33.5722,-112.0892,United States,US,USA,Arizona,admin,4065338,1840020568
Liuzhou,Liuzhou,24.3278,109.4278,China,CN,CHN,Guangxi,minor,4041700,1156360785
Chifeng,Chifeng,42.2550,118.8825,China,CN,CHN,Inner Mongolia,minor,4035967,1156277458
Xiaoxita,Xiaoxita,30.6920,111.2870,China,CN,CHN,Hubei,minor,4017607,1156764447
Amman,Amman,31.9497,35.9328,Jordan,JO,JOR,Al ‘Āşimah,primary,4007526,1400522593
Linfen,Linfen,36.0880,111.5190,China,CN,CHN,Shanxi,,3976481,1156416074
Xianyang,Xianyang,34.3299,108.7088,China,CN,CHN,Shaanxi,minor,3959842,1156120117
Chuzhou,Chuzhou,32.2560,118.3330,China,CN,CHN,Anhui,,3937868,1156036420
Kumasi,Kumasi,6.7000,-1.6250,Ghana,GH,GHA,Ashanti,admin,3903480,1288181103
Zhuzhou,Zhuzhou,27.8290,113.1330,China,CN,CHN,Hunan,minor,3902738,1156041962
Taiyuan,Taiyuan,37.8704,112.5497,China,CN,CHN,Shanxi,admin,3875053,1156632014
Qingyuan,Qingyuan,23.6820,113.0560,China,CN,CHN,Guangdong,minor,3874000,1156135890
Meizhou,Meizhou,24.2890,116.1220,China,CN,CHN,Guangdong,minor,3873239,1156361028
Yiyang,Yiyang,28.5549,112.3560,China,CN,CHN,Hunan,minor,3851564,1156218615
Nanning,Nanning,22.8167,108.3275,China,CN,CHN,Guangxi,admin,3837978,1156605439
Harbin,Harbin,45.7576,126.6409,China,CN,CHN,Heilongjiang,admin,3830000,1156241528
Loudi,Loudi,27.6998,111.9944,China,CN,CHN,Hunan,,3826996,1156010654
Abuja,Abuja,9.0667,7.4833,Nigeria,NG,NGA,Federal Capital Territory,primary,3770000,1566342270
Yokohama,Yokohama,35.4442,139.6381,Japan,JP,JPN,Kanagawa,admin,3757630,1392118339
Suihua,Suihua,46.6540,126.9690,China,CN,CHN,Heilongjiang,minor,3756167,1156235493
Binzhou,Binzhou,37.3830,117.9710,China,CN,CHN,Shandong,,3748474,1156564962
Zaozhuang,Zaozhuang,34.8109,117.3238,China,CN,CHN,Shandong,,3729140,1156796454
Detroit,Detroit,42.3834,-83.1024,United States,US,USA,Michigan,,3716929,1840003971
Xiamen,Xiamen,24.4796,118.0889,China,CN,CHN,Fujian,minor,3707090,1156212809
Mashhad,Mashhad,36.3264,59.5433,Iran,IR,IRN,Khorāsān-e Raẕavī,admin,3700000,1364123206
Montréal,Montreal,45.5089,-73.5617,Canada,CA,CAN,Quebec,,3675219,1124586170
Fuzhou,Fuzhou,26.0743,119.2964,China,CN,CHN,Fujian,admin,3671192,1156188037
Wuhu,Wuhu,31.3526,118.4331,China,CN,CHN,Anhui,minor,3644420,1156315512
Medan,Medan,3.5894,98.6739,Indonesia,ID,IDN,Sumatera Utara,admin,3632000,1360543171
Yulinshi,Yulinshi,38.2858,109.7341,China,CN,CHN,Shaanxi,,3624750,1156280672
Fuzhou,Fuzhou,27.9490,116.3580,China,CN,CHN,Jiangxi,,3614866,1156915325
Wenzhou,Wenzhou,27.9938,120.6993,China,CN,CHN,Zhejiang,,3604446,1156188829
Changzhou,Changzhou,31.8110,119.9740,China,CN,CHN,Jiangsu,minor,3601079,1156185511
Puyang,Puyang,35.7627,115.0292,China,CN,CHN,Henan,minor,3598740,1156431924
Nanchang,Nanchang,28.6830,115.8580,China,CN,CHN,Jiangxi,admin,3576547,1156198892
Baicheng,Baicheng,23.9030,106.6190,China,CN,CHN,Guangxi,minor,3571505,1156981113
Seattle,Seattle,47.6211,-122.3244,United States,US,USA,Washington,,3555253,1840021117
Ibadan,Ibadan,7.3964,3.9167,Nigeria,NG,NGA,Oyo,admin,3552000,1566366407
Jiaozuo,Jiaozuo,35.2157,113.2419,China,CN,CHN,Henan,,3521078,1156157854
Nādampālaiyam,Nadampalaiyam,11.0125,76.9714,India,IN,IND,Tamil Nādu,,3458045,1356163850
Deyang,Deyang,31.1270,104.3980,China,CN,CHN,Sichuan,minor,3456161,1156127147
Busan,Busan,35.1800,129.0750,"Korea, South",KR,KOR,Busan,admin,3453198,1410601465
Hechi,Hechi,24.6930,108.0850,China,CN,CHN,Guangxi,minor,3417945,1156167204
Tangshan,Tangshan,39.6294,118.1739,China,CN,CHN,Hebei,minor,3399231,1156904299
Lucknow,Lucknow,26.8500,80.9500,India,IN,IND,Uttar Pradesh,admin,3382000,1356891790
San Francisco,San Francisco,37.7558,-122.4449,United States,US,USA,California,,3364862,1840021543
Boankra,Boankra,6.6919,-1.4051,Ghana,GH,GHA,Ashanti,,3348000,1288164978
Dubai,Dubai,25.2631,55.2972,United Arab Emirates,AE,ARE,Dubayy,admin,3331420,1784736618
Anshan,Anshan,41.1080,122.9940,China,CN,CHN,Liaoning,,3325372,1156901825
Guozhen,Guozhen,34.3609,107.1751,China,CN,CHN,Shaanxi,minor,3321853,1156084652
Baojishi,Baojishi,34.3630,107.2380,China,CN,CHN,Shaanxi,,3321853,1156101096
Qinzhou,Qinzhou,21.9810,108.6540,China,CN,CHN,Guangxi,minor,3302238,1156106602
Guiyang,Guiyang,26.6470,106.6300,China,CN,CHN,Guizhou,admin,3299724,1156932620
Wuxi,Wuxi,31.5667,120.2833,China,CN,CHN,Jiangsu,minor,3245179,1156019650
Kannankulam,Kannankulam,10.5200,76.2100,India,IN,IND,Kerala,,3243170,1356335606
Caracas,Caracas,10.4806,-66.9036,Venezuela,VE,VEN,Distrito Capital,primary,3242000,1862748204
Kotla Qasim Khan,Kotla Qasim Khan,32.5833,73.7500,Pakistan,PK,PAK,Punjab,,3219375,1586216308
Casablanca,Casablanca,33.5333,-7.5833,Morocco,MA,MAR,Casablanca-Settat,admin,3215935,1504175315
Hanzhong,Hanzhong,33.0664,107.0232,China,CN,CHN,Shaanxi,,3211462,1156382678
Shiyan,Shiyan,32.6290,110.7987,China,CN,CHN,Hubei,minor,3209004,1156383921
Guang’an,Guang'an,30.4564,106.6326,China,CN,CHN,Sichuan,minor,3205476,1156377302
Faisalabad,Faisalabad,31.4167,73.0911,Pakistan,PK,PAK,Punjab,minor,3203846,1586323916
Changzhi,Changzhi,36.1950,113.1170,China,CN,CHN,Shanxi,minor,3180884,1156057944
Tongren,Tongren,27.7316,109.1895,China,CN,CHN,Guizhou,,3168800,1156803442
Bengbu,Bengbu,32.9170,117.3890,China,CN,CHN,Anhui,,3164467,1156440668
Leshan,Leshan,29.5520,103.7660,China,CN,CHN,Sichuan,,3160168,1156203130
Santa Cruz de la Sierra,Santa Cruz de la Sierra,-17.7892,-63.1975,Bolivia,BO,BOL,Santa Cruz,,3151676,1068005036
Neijiang,Neijiang,29.5802,105.0580,China,CN,CHN,Sichuan,minor,3140678,1156516335
Zhenjiang,Zhenjiang,32.1880,119.4240,China,CN,CHN,Jiangsu,minor,3113384,1156934125
Qinhuangdao,Qinhuangdao,39.8882,119.5202,China,CN,CHN,Hebei,minor,3107400,1156091093
Bursa,Bursa,40.1833,29.0500,Turkey,TR,TUR,Bursa,admin,3101833,1792903330
Tashkent,Tashkent,41.3111,69.2797,Uzbekistan,UZ,UZB,Toshkent,primary,3095498,1860331871
Guayaquil,Guayaquil,-2.1900,-79.8875,Ecuador,EC,ECU,Guayas,admin,3094420,1218802178
Jaipur,Jaipur,26.9000,75.8000,India,IN,IND,Rājasthān,admin,3073350,1356293537
Lanzhou,Lanzhou,36.0606,103.8268,China,CN,CHN,Gansu,admin,3067141,1156280566
Ouagadougou,Ouagadougou,12.3686,-1.5275,Burkina Faso,BF,BFA,Centre,primary,3063271,1854029208
Athens,Athens,37.9842,23.7281,Greece,GR,GRC,Attikí,primary,3059764,1300715560
San Diego,San Diego,32.8313,-117.1222,United States,US,USA,California,,3057778,1840021990
Guatemala City,Guatemala City,14.6417,-90.5133,Guatemala,GT,GTM,Guatemala,primary,3014000,1320197916
Kuwait City,Kuwait City,29.3697,47.9783,Kuwait,KW,KWT,Al ‘Āşimah,primary,2989000,1414102075
Qincheng,Qincheng,34.5815,105.7248,China,CN,CHN,Gansu,minor,2984659,1156104017
İzmir,Izmir,38.4200,27.1400,Turkey,TR,TUR,İzmir,admin,2965900,1792725579
Quezon City,Quezon City,14.6500,121.0475,Philippines,PH,PHL,Quezon,admin,2960048,1608974097
Kyiv,Kyiv,50.4500,30.5233,Ukraine,UA,UKR,"Kyiv, Misto",primary,2952301,1804382913
Kottārasshēri,Kottarassheri,10.7750,76.6510,India,IN,IND,Kerala,,2952254,1356333889
Meishan,Meishan,30.0771,103.8484,China,CN,CHN,Sichuan,,2950545,1156185501
Incheon,Incheon,37.4833,126.6333,"Korea, South",KR,KOR,Incheon,admin,2936117,1410160313
Ningde,Ningde,26.6662,119.5477,China,CN,CHN,Fujian,minor,2910000,1156909802
Zhongshan,Zhongshan,22.5170,113.3925,China,CN,CHN,Guangdong,minor,2909633,1156579621
Minneapolis,Minneapolis,44.9635,-93.2678,United States,US,USA,Minnesota,,2906807,1840007830
Tampa,Tampa,27.9945,-82.4447,United States,US,USA,Florida,,2906035,1840015982
Putian,Putian,25.4526,119.0078,China,CN,CHN,Fujian,minor,2900000,1156811601
Mbuji-Mayi,Mbuji-Mayi,-6.1500,23.6000,Congo (Kinshasa),CD,COD,Kasaï Oriental,admin,2892000,1180399586
Tongliao,Tongliao,43.6540,122.2430,China,CN,CHN,Inner Mongolia,minor,2873168,1156358686
Chaoyang,Chaoyang,41.5710,120.4530,China,CN,CHN,Liaoning,,2872857,1156706927
Hohhot,Hohhot,40.8420,111.7490,China,CN,CHN,Inner Mongolia,admin,2866615,1156210167
Pyongyang,Pyongyang,39.0167,125.7475,"Korea, North",KP,PRK,P’yŏngyang,primary,2863000,1408738594
Shaoguan,Shaoguan,24.8110,113.5970,China,CN,CHN,Guangdong,minor,2855131,1156617066
Taichung,Taichung,24.1439,120.6794,Taiwan,TW,TWN,Taichung,admin,2850285,1158689622
Cali,Cali,3.4206,-76.5222,Colombia,CO,COL,Valle del Cauca,admin,2838333,1170417589
Heyuan,Heyuan,23.7443,114.7002,China,CN,CHN,Guangdong,minor,2837686,1156665165
Wuzhou,Wuzhou,23.4767,111.2790,China,CN,CHN,Guangxi,minor,2820977,1156620133
Pretoria,Pretoria,-25.7461,28.1881,South Africa,ZA,ZAF,Gauteng,primary,2818100,1710176249
Suining,Suining,30.5330,105.5930,China,CN,CHN,Sichuan,minor,2814196,1156655650
Omdurman,Omdurman,15.6835,32.4629,Sudan,SD,SDN,Khartoum,,2805396,1729912179
Weihai,Weihai,37.5133,122.1205,China,CN,CHN,Shandong,minor,2804771,1156473300
Rizhao,Rizhao,35.4170,119.5270,China,CN,CHN,Shandong,minor,2801013,1156032841
Malang,Malang,-7.9800,112.6200,Indonesia,ID,IDN,Jawa Timur,,2795209,1360141408
Stuttgart,Stuttgart,48.7775,9.1800,Germany,DE,DEU,Baden-Württemberg,admin,2787724,1276171358
Daqing,Daqing,46.5890,125.1040,China,CN,CHN,Heilongjiang,minor,2781562,1156403962
Rome,Rome,41.8931,12.4828,Italy,IT,ITA,Lazio,primary,2748109,1380382862
Kaohsiung,Kaohsiung,22.6150,120.2975,Taiwan,TW,TWN,Kaohsiung,admin,2737660,1158331334
Brooklyn,Brooklyn,40.6501,-73.9496,United States,US,USA,New York,,2736074,1840034030
Xiangtan,Xiangtan,27.8313,112.9454,China,CN,CHN,Hunan,,2726181,1156195684
Bazhou,Bazhou,31.8680,106.7480,China,CN,CHN,Sichuan,minor,2712894,1156271365
Handan,Handan,36.6010,114.4870,China,CN,CHN,Hebei,minor,2708015,1156957080
Brisbane,Brisbane,-27.4678,153.0281,Australia,AU,AUS,Queensland,admin,2706966,1036192929
Jinzhou,Jinzhou,41.1290,121.1480,China,CN,CHN,Liaoning,,2703853,1156157151
Denver,Denver,39.7620,-104.8758,United States,US,USA,Colorado,admin,2691349,1840018789
Xinzhou,Xinzhou,38.4160,112.7340,China,CN,CHN,Shanxi,minor,2689668,1156617534
Nanping,Nanping,26.6418,118.1774,China,CN,CHN,Fujian,minor,2680645,1156927445
Gāzipura,Gazipura,23.9234,90.3959,Bangladesh,BD,BGD,Dhaka,,2674697,1050449249
Shanwei,Shanwei,22.7872,115.3756,China,CN,CHN,Guangdong,minor,2672819,1156939010
Maracaibo,Maracaibo,10.6333,-71.6333,Venezuela,VE,VEN,Zulia,admin,2658355,1862072711
Chaozhou,Chaozhou,23.6580,116.6220,China,CN,CHN,Guangdong,minor,2656600,1156549118
Baotou,Baotou,40.6213,109.9532,China,CN,CHN,Inner Mongolia,,2650364,1156032751
Longyan,Longyan,25.0760,117.0170,China,CN,CHN,Fujian,minor,2640000,1156012979
Weifang,Weifang,36.7080,119.1620,China,CN,CHN,Shandong,,2636154,1156912965
Huai’an,Huai'an,33.5510,119.1130,China,CN,CHN,Jiangsu,,2632788,1156634228
Zibo,Zibo,36.8138,118.0550,China,CN,CHN,Shandong,,2631647,1156381094
Attadappa,Attadappa,11.8689,75.3555,India,IN,IND,Kerala,,2615266,1356069832
Munich,Munich,48.1375,11.5750,Germany,DE,DEU,Bavaria,admin,2606021,1276692352
Gulou,Gulou,26.0865,119.2980,China,CN,CHN,Fujian,minor,2606000,1156680279
Birmingham,Birmingham,52.4800,-1.9025,United Kingdom,GB,GBR,Birmingham,,2590363,1826423213
Valencia,Valencia,10.1833,-68.0000,Venezuela,VE,VEN,Carabobo,admin,2585202,1862309871
Damascus,Damascus,33.5020,36.2981,Syria,SY,SYR,Dimashq,primary,2584771,1760685964
Chattogram,Chattogram,22.3350,91.8325,Bangladesh,BD,BGD,Chattogram,admin,2581643,1050830722
Brazzaville,Brazzaville,-4.2667,15.2667,Congo (Brazzaville),CG,COG,Brazzaville,primary,2557100,1178340306
Yangjiang,Yangjiang,21.8570,111.9830,China,CN,CHN,Guangdong,minor,2555600,1156123172
Sanaa,Sanaa,15.3483,44.2064,Yemen,YE,YEM,Amānat al ‘Āşimah,primary,2545000,1887750814
Barmhān Kalān,Barmhan Kalan,19.1972,72.9722,India,IN,IND,Madhya Pradesh,,2537000,1356157519
Medellín,Medellin,6.2308,-75.5906,Colombia,CO,COL,Antioquia,admin,2529403,1170680389
Dingxi,Dingxi,35.6080,104.5920,China,CN,CHN,Gansu,minor,2524097,1156518274
Shaoxing,Shaoxing,30.0511,120.5833,China,CN,CHN,Zhejiang,minor,2521964,1156893449
Yantai,Yantai,37.4646,121.4478,China,CN,CHN,Shandong,,2511053,1156932948
Huizhou,Huizhou,23.1120,114.4160,China,CN,CHN,Guangdong,minor,2509243,1156203268
Xuanzhou,Xuanzhou,30.9390,118.7590,China,CN,CHN,Anhui,,2500063,1156424311
Mirzāpur,Mirzapur,25.1460,82.5690,India,IN,IND,Uttar Pradesh,,2496970,1356427908
Hamburg,Hamburg,53.5500,10.0000,Germany,DE,DEU,Hamburg,admin,2496600,1276041799
Taipei,Taipei,25.0375,121.5625,Taiwan,TW,TWN,Taipei,primary,2494813,1158881289
Ankang,Ankang,32.6854,109.0290,China,CN,CHN,Shaanxi,,2493436,1156255711
Zigong,Zigong,29.3390,104.7790,China,CN,CHN,Sichuan,,2489256,1156023354
Sanming,Sanming,26.2634,117.6389,China,CN,CHN,Fujian,minor,2486450,1156294429
Toluca,Toluca,19.2925,-99.6569,Mexico,MX,MEX,México,admin,2476689,1484124846
Huangshi,Huangshi,30.2011,115.0390,China,CN,CHN,Hubei,minor,2469079,1156234290
Yaoundé,Yaounde,3.8667,11.5167,Cameroon,CM,CMR,Centre,primary,2440462,1120298240
Zhuhai,Zhuhai,22.2742,113.5719,China,CN,CHN,Guangdong,minor,2439585,1156722242
Huludao,Huludao,40.7110,120.8370,China,CN,CHN,Liaoning,minor,2434194,1156580218
Baoshan,Baoshan,25.1120,99.1610,China,CN,CHN,Yunnan,,2431211,1156546994
Mecca,Mecca,21.4225,39.8261,Saudi Arabia,SA,SAU,Makkah al Mukarramah,admin,2427924,1682169241
Vancouver,Vancouver,49.2500,-123.1000,Canada,CA,CAN,British Columbia,,2426160,1124825478
Lianshan,Lianshan,40.7523,120.8280,China,CN,CHN,Liaoning,minor,2426000,1156046704
Beirut,Beirut,33.8981,35.5058,Lebanon,LB,LBN,Beyrouth,primary,2421354,1422847713
Salvador,Salvador,-12.9831,-38.4928,Brazil,BR,BRA,Bahia,admin,2417678,1076923789
Bucharest,Bucharest,44.4325,26.1039,Romania,RO,ROU,Bucureşti,primary,2412530,1642414442
Longba,Longba,33.3702,104.9603,China,CN,CHN,Gansu,,2407272,1156633259
Nāgpur,Nagpur,21.1497,79.0806,India,IN,IND,Mahārāshtra,,2405665,1356365743
Queens,Queens,40.7498,-73.7976,United States,US,USA,New York,,2405464,1840034002
Tieling,Tieling,42.2237,123.7260,China,CN,CHN,Liaoning,,2388294,1156089994
Yunfu,Yunfu,22.9152,112.0445,China,CN,CHN,Guangdong,minor,2383350,1156057251
Bekasi,Bekasi,-6.2333,107.0000,Indonesia,ID,IDN,Jawa Barat,,2381053,1360673840
Daegu,Daegu,35.8717,128.6017,"Korea, South",KR,KOR,Daegu,admin,2376044,1410095252
Ghāziābād,Ghaziabad,28.6700,77.4200,India,IN,IND,Uttar Pradesh,,2375820,1356691871
Luoyang,Luoyang,34.6197,112.4539,China,CN,CHN,Henan,minor,2372571,1156069315
Luohe,Luohe,33.5804,114.0166,China,CN,CHN,Henan,minor,2367490,1156330876
Algiers,Algiers,36.7325,3.0872,Algeria,DZ,DZA,Alger,primary,2364230,1012973369
Anshun,Anshun,26.2531,105.9476,China,CN,CHN,Guizhou,,2353100,1156415948
Huainan,Huainan,32.6314,117.0194,China,CN,CHN,Anhui,,2333896,1156877299
Depok,Depok,-6.3940,106.8225,Indonesia,ID,IDN,Jawa Barat,,2330333,1360962899
Konya,Konya,37.8667,32.4833,Turkey,TR,TUR,Konya,admin,2320241,1792014004
Haiphong,Haiphong,20.8651,106.6838,Vietnam,VN,VNM,Hải Phòng,admin,2310280,1704000623
Yanjiang,Yanjiang,30.1290,104.6270,China,CN,CHN,Sichuan,minor,2308631,1156217114
Guangyuan,Guangyuan,32.4360,105.8440,China,CN,CHN,Sichuan,,2305657,1156084562
Baku,Baku,40.3667,49.8352,Azerbaijan,AZ,AZE,Bakı,primary,2300500,1031946365
Yingkou,Yingkou,40.6250,122.2190,China,CN,CHN,Liaoning,minor,2296540,1156257074
Mudanjiang,Mudanjiang,44.5514,129.6329,China,CN,CHN,Heilongjiang,minor,2290208,1156249698
Riverside,Riverside,33.9381,-117.3949,United States,US,USA,California,,2288508,1840020551
Fukuoka,Fukuoka,33.5900,130.4017,Japan,JP,JPN,Fukuoka,admin,2286000,1392576294
Nantong,Nantong,31.9810,120.8940,China,CN,CHN,Jiangsu,minor,2261382,1156045365
Lincang,Lincang,23.8840,100.0890,China,CN,CHN,Yunnan,,2257991,1156044130
Las Vegas,Las Vegas,36.2333,-115.2654,United States,US,USA,Nevada,,2256509,1840020364
Haikou,Haikou,20.0186,110.3488,China,CN,CHN,Hainan,admin,2250000,1156183327
Yuxi,Yuxi,24.3470,102.5270,China,CN,CHN,Yunnan,minor,2249502,1156682309
Tangerang,Tangerang,-6.1703,106.6403,Indonesia,ID,IDN,Jawa Barat,,2237006,1360002844
Supaul,Supaul,26.1260,86.6050,India,IN,IND,Bihār,,2229076,1356015995
Almaty,Almaty,43.2400,76.9150,Kazakhstan,KZ,KAZ,Almaty,admin,2228675,1398351701
Vienna,Vienna,48.2083,16.3725,Austria,AT,AUT,Wien,primary,2223236,1040261752
Eşfahān,Esfahan,32.6653,51.6703,Iran,IR,IRN,Eşfahān,admin,2219343,1364023865
Xining,Xining,36.6224,101.7804,China,CN,CHN,Qinghai,admin,2208708,1156081448
Jincheng,Jincheng,35.4910,112.8520,China,CN,CHN,Shanxi,minor,2194545,1156163376
Baltimore,Baltimore,39.3051,-76.6144,United States,US,USA,Maryland,,2189589,1840001592
Dandong,Dandong,40.1167,124.3833,China,CN,CHN,Liaoning,,2188436,1156178316
Yan’an,Yan'an,36.6500,109.4940,China,CN,CHN,Shaanxi,,2187009,1156546342
Qinbaling,Qinbaling,35.7091,107.6436,China,CN,CHN,Gansu,,2179716,1156032582
Gaoping,Gaoping,30.7824,106.1281,China,CN,CHN,Sichuan,minor,2174000,1156522457
Awka,Awka,6.2069,7.0678,Nigeria,NG,NGA,Anambra,admin,2171900,1566560581
Taizhou,Taizhou,28.6557,121.4208,China,CN,CHN,Zhejiang,minor,2162461,1156322307
Ma’anshan,Ma'anshan,31.6690,118.5070,China,CN,CHN,Anhui,minor,2159930,1156847452
Jiamusi,Jiamusi,46.8000,130.3190,China,CN,CHN,Heilongjiang,minor,2156505,1156350864
Perth,Perth,-31.9558,115.8597,Australia,AU,AUS,Western Australia,admin,2141834,1036178956
Gaziantep,Gaziantep,37.0628,37.3792,Turkey,TR,TUR,Gaziantep,admin,2130432,1792911843
Phnom Penh,Phnom Penh,11.5696,104.9210,Cambodia,KH,KHM,Phnom Penh,primary,2129371,1116260534
St. Louis,St. Louis,38.6359,-90.2451,United States,US,USA,Missouri,,2127843,1840001651
Mogadishu,Mogadishu,2.0392,45.3419,Somalia,SO,SOM,Banaadir,primary,2120000,1706893395
Lishui,Lishui,28.4680,119.9230,China,CN,CHN,Zhejiang,minor,2116957,1156858793
Kowloon,Kowloon,22.3167,114.1833,Hong Kong,HK,HKG,,,2108419,1344538284
Córdoba,Cordoba,-31.4167,-64.1833,Argentina,AR,ARG,Córdoba,admin,2106734,1032803249
Zamboanga City,Zamboanga City,6.9042,122.0761,Philippines,PH,PHL,Zamboanga,admin,2100000,1608189351
Rawalpindi,Rawalpindi,33.6000,73.0333,Pakistan,PK,PAK,Punjab,minor,2098231,1586344001
Havana,Havana,23.1367,-82.3589,Cuba,CU,CUB,La Habana,primary,2089532,1192752771
Chongzuo,Chongzuo,22.3770,107.3650,China,CN,CHN,Guangxi,minor,2088692,1156438670
Portland,Portland,45.5371,-122.6500,United States,US,USA,Oregon,,2084045,1840019941
Laibin,Laibin,23.7501,109.2212,China,CN,CHN,Guangxi,minor,2074611,1156925734
San Antonio,San Antonio,29.4632,-98.5238,United States,US,USA,Texas,,2069843,1840022220
Vadodara,Vadodara,22.3000,73.2000,India,IN,IND,Gujarāt,,2065771,1356705249
Qingyang,Qingyang,24.7816,118.5517,China,CN,CHN,Fujian,minor,2061600,1156273372
Rājkot,Rajkot,22.3000,70.7833,India,IN,IND,Gujarāt,,2043000,1356317190
Shangzhou,Shangzhou,33.8734,109.9186,China,CN,CHN,Shaanxi,,2041231,1156091241
Vishākhapatnam,Vishakhapatnam,17.7042,83.2978,India,IN,IND,Andhra Pradesh,,2035922,1356692563
Shengli,Shengli,37.4340,118.6746,China,CN,CHN,Shandong,minor,2035338,1156672254
Sanmenxia,Sanmenxia,34.7732,111.2004,China,CN,CHN,Henan,minor,2034872,1156529682
Warsaw,Warsaw,52.2300,21.0111,Poland,PL,POL,Mazowieckie,primary,2028000,1616024847
Gujranwala,Gujranwala,32.1567,74.1900,Pakistan,PK,PAK,Punjab,minor,2027001,1586400472
Hezhou,Hezhou,24.4042,111.5672,China,CN,CHN,Guangxi,minor,2007858,1156459799
Aleppo,Aleppo,36.2319,37.1681,Syria,SY,SYR,Ḩalab,admin,2003671,1760366651
Tijuana,Tijuana,32.5250,-117.0333,Mexico,MX,MEX,Baja California,minor,2002000,1484708778
Puning,Puning,23.2980,116.1660,China,CN,CHN,Guangdong,,1998619,1156756494
Indore,Indore,22.7167,75.8472,India,IN,IND,Madhya Pradesh,,1994397,1356402812
Minsk,Minsk,53.9006,27.5586,Belarus,BY,BLR,Minsk,primary,1992862,1112348503
Karaj,Karaj,35.8292,50.9675,Iran,IR,IRN,Alborz,admin,1973470,1364258511
Kananga,Kananga,-5.8970,22.4488,Congo (Kinshasa),CD,COD,Kasaï Central,admin,1971704,1180172460
Huaibei,Huaibei,33.9560,116.7980,China,CN,CHN,Anhui,,1970265,1156142626
Peshawar,Peshawar,34.0144,71.5675,Pakistan,PK,PAK,Khyber Pakhtunkhwa,admin,1970042,1586851102
Sacramento,Sacramento,38.5677,-121.4685,United States,US,USA,California,admin,1962998,1840021491
Sapporo,Sapporo,43.0619,141.3544,Japan,JP,JPN,Hokkaidō,admin,1959313,1392000195
Tilburg,Tilburg,51.5572,5.0911,Netherlands,NL,NLD,Noord-Brabant,minor,1944588,1528817379
Austin,Austin,30.3005,-97.7522,United States,US,USA,Texas,admin,1915031,1840019590
Orlando,Orlando,28.4773,-81.3370,United States,US,USA,Florida,,1913597,1840015099
Davao,Davao,7.0700,125.6000,Philippines,PH,PHL,Davao,admin,1910167,1608906877
Songjiang,Songjiang,31.0058,121.2333,China,CN,CHN,Shanghai,minor,1909713,1156187493
Yinchuan,Yinchuan,38.4850,106.2250,China,CN,CHN,Ningxia,admin,1901793,1156359072
Abhepur,Abhepur,39.4100,116.3800,India,IN,IND,Haryāna,,1895686,1356324522
Thāne,Thane,19.1972,72.9722,India,IN,IND,Mahārāshtra,,1886941,1356681152
Multan,Multan,30.1978,71.4697,Pakistan,PK,PAK,Punjab,minor,1871843,1586256291
Port Harcourt,Port Harcourt,4.8242,7.0336,Nigeria,NG,NGA,Rivers,admin,1865000,1566070649
Fushun,Fushun,41.8810,123.9570,China,CN,CHN,Liaoning,,1861372,1156857743
Tainan,Tainan,22.9833,120.1833,Taiwan,TW,TWN,Tainan,admin,1856642,1158061376
Pingliang,Pingliang,35.5424,106.6649,China,CN,CHN,Gansu,minor,1848607,1156216904
Siping,Siping,43.1668,124.3506,China,CN,CHN,Jilin,minor,1814733,1156063295
San Juan,San Juan,18.3985,-66.0610,Puerto Rico,PR,PRI,Puerto Rico,primary,1809800,1630035577
Pingxiang,Pingxiang,27.6590,113.8870,China,CN,CHN,Jiangxi,minor,1804805,1156066465
Bhopāl,Bhopal,23.2599,77.4126,India,IN,IND,Madhya Pradesh,admin,1798218,1356734039
Mosul,Mosul,36.3667,43.1167,Iraq,IQ,IRQ,Nīnawá,admin,1792000,1368194914
Diyarbakır,Diyarbakir,37.9100,40.2400,Turkey,TR,TUR,Diyarbakır,admin,1791373,1792536241
Lubumbashi,Lubumbashi,-11.6647,27.4794,Congo (Kinshasa),CD,COD,Haut-Katanga,admin,1786397,1180506234
Benin City,Benin City,6.3333,5.6222,Nigeria,NG,NGA,Edo,admin,1780000,1566080151
Curitiba,Curitiba,-25.4297,-49.2719,Brazil,BR,BRA,Paraná,admin,1773718,1076701712
San Jose,San Jose,37.3012,-121.8480,United States,US,USA,California,,1771563,1840021570
Shuyangzha,Shuyangzha,34.1299,118.7734,China,CN,CHN,Jiangsu,,1770000,1156051957
Adana,Adana,37.0000,35.3213,Turkey,TR,TUR,Adana,admin,1765981,1792783772
Quito,Quito,-0.2200,-78.5125,Ecuador,EC,ECU,Pichincha,primary,1763275,1218441993
Āgra,Agra,27.1800,78.0200,India,IN,IND,Uttar Pradesh,,1760285,1356187395
Peyanvilai,Peyanvilai,8.9000,77.9833,India,IN,IND,Tamil Nādu,,1750176,1356214129
Lusaka,Lusaka,-15.4167,28.2833,Zambia,ZM,ZMB,Lusaka,primary,1747152,1894157390
Indianapolis,Indianapolis,39.7771,-86.1458,United States,US,USA,Indiana,admin,1740984,1840030084
Hyderabad City,Hyderabad City,25.3792,68.3683,Pakistan,PK,PAK,Sindh,minor,1732693,1586185019
Pimpri-Chinchwad,Pimpri-Chinchwad,18.6186,73.8037,India,IN,IND,Mahārāshtra,,1729320,1356475483
Maracay,Maracay,10.2469,-67.5961,Venezuela,VE,VEN,Aragua,admin,1723236,1862284350
Masqaţ,Masqat,23.6140,58.5911,Oman,OM,OMN,Masqaţ,,1720000,1512001294
Montevideo,Montevideo,-34.9056,-56.1842,Uruguay,UY,URY,Montevideo,primary,1719453,1858107000
Pittsburgh,Pittsburgh,40.4397,-79.9763,United States,US,USA,Pennsylvania,,1712828,1840001254
Cincinnati,Cincinnati,39.1413,-84.5060,United States,US,USA,Ohio,,1704916,1840003814
Manhattan,Manhattan,40.7834,-73.9662,United States,US,USA,New York,,1694263,1840034000
Kansas City,Kansas City,39.1238,-94.5541,United States,US,USA,Missouri,,1686807,1840008535
Budapest,Budapest,47.4983,19.0408,Hungary,HU,HUN,Budapest,primary,1686222,1348611435
Patna,Patna,25.5940,85.1376,India,IN,IND,Bihār,admin,1684222,1356821429
Kampala,Kampala,0.3136,32.5811,Uganda,UG,UGA,Kampala,primary,1680600,1800406299
Beihai,Beihai,21.4810,109.1200,China,CN,CHN,Guangxi,minor,1680000,1156421449
Sanzhou,Sanzhou,30.8200,108.4000,China,CN,CHN,Chongqing,,1680000,1156025536
Cleveland,Cleveland,41.4764,-81.6805,United States,US,USA,Ohio,,1679247,1840000596
Conakry,Conakry,9.5092,-13.7122,Guinea,GN,GIN,Conakry,primary,1667864,1324568159
Ximeicun,Ximeicun,24.9612,118.3849,China,CN,CHN,Fujian,,1663542,1156173813
Caloocan City,Caloocan City,14.6500,120.9700,Philippines,PH,PHL,Caloocan,admin,1661584,1608897690
Ecatepec,Ecatepec,19.6097,-99.0600,Mexico,MX,MEX,México,minor,1655015,1484003694
Yushan,Yushan,31.3220,120.9850,China,CN,CHN,Jiangsu,minor,1652159,1156245000
Fuxin,Fuxin,42.0220,121.6700,China,CN,CHN,Liaoning,,1647280,1156141954
Novosibirsk,Novosibirsk,55.0500,82.9500,Russia,RU,RUS,Novosibirskaya Oblast’,admin,1633851,1643399240
Bilāspur,Bilaspur,22.0900,82.1500,India,IN,IND,Chhattīsgarh,,1625502,1356820491
Semarang,Semarang,-6.9900,110.4225,Indonesia,ID,IDN,Jawa Tengah,admin,1621384,1360745537
Jingdezhen,Jingdezhen,29.2917,117.1986,China,CN,CHN,Jiangxi,minor,1618979,1156038165
Ludhiāna,Ludhiana,30.9100,75.8500,India,IN,IND,Punjab,,1618879,1356929498
Liaoyang,Liaoyang,41.2790,123.1760,China,CN,CHN,Liaoning,,1604580,1156202749
Jiangyin,Jiangyin,31.8390,120.2950,China,CN,CHN,Jiangsu,,1595138,1156033234
Valencia,Valencia,39.4700,-0.3764,Spain,ES,ESP,Valencia,admin,1595000,1724981666
Shuozhou,Shuozhou,39.3317,112.4329,China,CN,CHN,Shanxi,minor,1593444,1156227167
León de los Aldama,Leon de los Aldama,21.1167,-101.6833,Mexico,MX,MEX,Guanajuato,minor,1579803,1484811199
Columbus,Columbus,39.9862,-82.9855,United States,US,USA,Ohio,admin,1578153,1840003760
Puebla,Puebla,19.0333,-98.1833,Mexico,MX,MEX,Puebla,admin,1576259,1484416394
Biên Hòa,Bien Hoa,10.9500,106.8167,Vietnam,VN,VNM,Đồng Nai,admin,1575000,1704863046
Chengtangcun,Chengtangcun,35.0833,117.1500,China,CN,CHN,Shandong,,1574648,1156883901
Yopougon,Yopougon,5.3748,-4.0867,Côte d’Ivoire,CI,CIV,Abidjan,,1571065,1384759584
Hebi,Hebi,35.7480,114.2970,China,CN,CHN,Henan,,1565973,1156114258
Shīrāz,Shiraz,29.6100,52.5425,Iran,IR,IRN,Fārs,admin,1565572,1364432238
Dushanbe,Dushanbe,38.5367,68.7800,Tajikistan,TJ,TJK,Dushanbe,primary,1564700,1762930616
Madurai,Madurai,9.9252,78.1198,India,IN,IND,Tamil Nādu,minor,1561129,1356257289
Huzhou,Huzhou,30.8925,120.0875,China,CN,CHN,Zhejiang,minor,1558826,1156335543
Harare,Harare,-17.8292,31.0522,Zimbabwe,ZW,ZWE,Harare,primary,1558823,1716196799
Tabrīz,Tabriz,38.0817,46.2992,Iran,IR,IRN,Āz̄arbāyjān-e Sharqī,admin,1558693,1364141756
Jamshedpur,Jamshedpur,22.7925,86.1842,India,IN,IND,Jhārkhand,,1558000,1356501259
Baicheng,Baicheng,45.6200,122.8380,China,CN,CHN,Jilin,minor,1551378,1156435764
San José,San Jose,9.9325,-84.0800,Costa Rica,CR,CRI,San José,primary,1543000,1188749877
Shaoyang,Shaoyang,32.9120,119.8526,China,CN,CHN,Jiangsu,minor,1542600,1156668366
San Salvador,San Salvador,13.6989,-89.1914,El Salvador,SV,SLV,San Salvador,primary,1538525,1222647454
Palembang,Palembang,-2.9861,104.7556,Indonesia,ID,IDN,Sumatera Selatan,admin,1535952,1360902897
Kawasaki,Kawasaki,35.5167,139.7000,Japan,JP,JPN,Kanagawa,,1531646,1392003356
Kōbe,Kobe,34.6900,135.1956,Japan,JP,JPN,Hyōgo,admin,1521707,1392978082
Jiaxing,Jiaxing,30.7470,120.7560,China,CN,CHN,Zhejiang,minor,1518654,1156491661
Zhangjiajie,Zhangjiajie,29.1170,110.4790,China,CN,CHN,Hunan,minor,1517027,1156072884
Baiyin,Baiyin,36.5451,104.1389,China,CN,CHN,Gansu,minor,1512110,1156140738
Guiping,Guiping,23.4000,110.0833,China,CN,CHN,Guangxi,minor,1511011,1156165517
Changshu,Changshu,31.6560,120.7530,China,CN,CHN,Jiangsu,,1510100,1156901538
Jixi,Jixi,45.2950,130.9690,China,CN,CHN,Heilongjiang,minor,1502060,1156393765
Xushan,Xushan,30.1667,121.2333,China,CN,CHN,Zhejiang,minor,1502000,1156046916
Lomé,Lome,6.1308,1.2153,Togo,TG,TGO,Maritime,primary,1500000,1768409132
Niamey,Niamey,13.5150,2.1175,Niger,NE,NER,Niamey,primary,1496260,1562932886
Gwangju,Gwangju,35.1653,126.8486,"Korea, South",KR,KOR,Gwangju,admin,1490092,1410000087
Recife,Recife,-8.0539,-34.8808,Brazil,BR,BRA,Pernambuco,admin,1488920,1076137337
Nāsik,Nasik,19.9975,73.7898,India,IN,IND,Mahārāshtra,,1486053,1356562598
Abu Dhabi,Abu Dhabi,24.4667,54.3667,United Arab Emirates,AE,ARE,Abū Z̧aby,primary,1483000,1784176710
Onitsha,Onitsha,6.1667,6.7833,Nigeria,NG,NGA,Anambra,minor,1483000,1566593483
Amsterdam,Amsterdam,52.3728,4.8936,Netherlands,NL,NLD,Noord-Holland,primary,1477213,1528355309
Vijayavāda,Vijayawada,16.5193,80.6305,India,IN,IND,Andhra Pradesh,,1476931,1356807575
Zapopan,Zapopan,20.7167,-103.4000,Mexico,MX,MEX,Jalisco,minor,1476491,1484198680
Daejeon,Daejeon,36.3500,127.3850,"Korea, South",KR,KOR,Daejeon,admin,1475221,1410993875
Bronx,Bronx,40.8501,-73.8662,United States,US,USA,New York,,1472654,1840033999
Auckland,Auckland,-36.8492,174.7653,New Zealand,NZ,NZL,Auckland,admin,1470100,1554435911
Yekaterinburg,Yekaterinburg,56.8356,60.6128,Russia,RU,RUS,Sverdlovskaya Oblast’,admin,1468833,1643582706
Wuwei,Wuwei,37.9290,102.6380,China,CN,CHN,Gansu,minor,1464955,1156760291
Jinhua,Jinhua,29.0790,119.6470,China,CN,CHN,Zhejiang,minor,1463990,1156547188
Kyōto,Kyoto,35.0117,135.7683,Japan,JP,JPN,Kyōto,admin,1463723,1392622735
Pizhou,Pizhou,34.3980,117.8900,China,CN,CHN,Jiangsu,,1458038,1156114238
Yangshe,Yangshe,31.8767,120.5560,China,CN,CHN,Jiangsu,minor,1447600,1156203000
Dakar,Dakar,14.6726,-17.4320,Senegal,SN,SEN,Dakar,primary,1438725,1686604760
Charlotte,Charlotte,35.2083,-80.8303,United States,US,USA,North Carolina,,1436613,1840014557
Yucheng,Yucheng,30.0100,103.0415,China,CN,CHN,Sichuan,minor,1434603,1156817119
Kayseri,Kayseri,38.7225,35.4875,Turkey,TR,TUR,Kayseri,admin,1434357,1792945815
Virginia Beach,Virginia Beach,36.7335,-76.0435,United States,US,USA,Virginia,,1431821,1840003871
Rui’an,Rui'an,27.7833,120.6250,China,CN,CHN,Zhejiang,,1424667,1156993705
Muscat,Muscat,23.6139,58.5922,Oman,OM,OMN,Masqaţ,primary,1421409,1512035506
Kharkiv,Kharkiv,49.9925,36.2311,Ukraine,UA,UKR,Kharkivska Oblast,admin,1421125,1804588111
Pointe-Noire,Pointe-Noire,-4.7975,11.8503,Congo (Brazzaville),CG,COG,Pointe-Noire,admin,1420612,1178411563
Medina,Medina,24.4700,39.6100,Saudi Arabia,SA,SAU,Al Madīnah al Munawwarah,admin,1411599,1682345785
Sangereng,Sangereng,-6.2889,106.7181,Indonesia,ID,IDN,Jawa Barat,,1404785,1360029147
Farīdābād,Faridabad,28.4211,77.3078,India,IN,IND,Haryāna,,1404653,1356013205
Sofia,Sofia,42.6979,23.3217,Bulgaria,BG,BGR,Sofia-Grad,primary,1404116,1100762037
Ulaanbaatar,Ulaanbaatar,47.9214,106.9055,Mongolia,MN,MNG,Ulaanbaatar,primary,1396288,1496024767
Adelaide,Adelaide,-34.9275,138.6000,Australia,AU,AUS,South Australia,admin,1387290,1036538171
Prague,Prague,50.0875,14.4214,Czechia,CZ,CZE,Praha,primary,1384732,1203744823
Wenling,Wenling,28.3667,121.3667,China,CN,CHN,Zhejiang,,1366794,1156052493
Copenhagen,Copenhagen,55.6805,12.5615,Denmark,DK,DNK,Hovedstaden,primary,1366301,1208763942
Najafgarh,Najafgarh,28.6125,76.9847,India,IN,IND,Delhi,,1365152,1356180206
Lianjiang,Lianjiang,21.7333,110.2833,China,CN,CHN,Guangdong,,1363470,1156944106
Helsinki,Helsinki,60.1708,24.9375,Finland,FI,FIN,Uusimaa,primary,1360075,1246177997
Samsun,Samsun,41.2903,36.3336,Turkey,TR,TUR,Samsun,admin,1356079,1792169057
Milan,Milan,45.4669,9.1900,Italy,IT,ITA,Lombardy,admin,1354196,1380724377
Antalya,Antalya,36.8874,30.7075,Turkey,TR,TUR,Antalya,admin,1344000,1792988434
Santiago,Santiago,19.4572,-70.6889,Dominican Republic,DO,DOM,Cibao Norte,admin,1343423,1214985348
Chizhou,Chizhou,30.6654,117.4916,China,CN,CHN,Anhui,minor,1342764,1156131504
Makassar,Makassar,-5.1331,119.4136,Indonesia,ID,IDN,Sulawesi Selatan,admin,1338663,1360051337
Porto Alegre,Porto Alegre,-30.0328,-51.2300,Brazil,BR,BRA,Rio Grande do Sul,admin,1332845,1076658221
Huangshan,Huangshan,29.7149,118.3376,China,CN,CHN,Anhui,minor,1330565,1156527426
Gaozhou,Gaozhou,21.9244,110.8422,China,CN,CHN,Guangdong,minor,1328657,1156785303
Barranquilla,Barranquilla,10.9833,-74.8019,Colombia,CO,COL,Atlántico,admin,1326588,1170179113
Al Başrah,Al Basrah,30.5150,47.8100,Iraq,IQ,IRQ,Al Başrah,admin,1326564,1368714645
Benxi,Benxi,41.3039,123.7649,China,CN,CHN,Liaoning,,1326018,1156097909
Saitama,Saitama,35.8614,139.6456,Japan,JP,JPN,Saitama,admin,1325843,1392017719
Ahvāz,Ahvaz,31.3047,48.6783,Iran,IR,IRN,Khūzestān,admin,1325000,1364350188
Guarulhos,Guarulhos,-23.4667,-46.5333,Brazil,BR,BRA,São Paulo,minor,1324781,1076730420
Leizhou,Leizhou,20.9143,110.0967,China,CN,CHN,Guangdong,minor,1321091,1156863840
Juárez,Juarez,31.7450,-106.4850,Mexico,MX,MEX,Chihuahua,minor,1321004,1484840083
Mandalay,Mandalay,21.9831,96.0844,Burma,MM,MMR,Mandalay,admin,1319452,1104468217
Yangquan,Yangquan,37.8571,113.5804,China,CN,CHN,Shanxi,minor,1318505,1156157844
Fuqing,Fuqing,25.7167,119.3833,China,CN,CHN,Fujian,minor,1316000,1156893569
Xintai,Xintai,35.9090,117.7680,China,CN,CHN,Shandong,,1315942,1156761230
Wusong,Wusong,30.9450,117.8110,China,CN,CHN,Anhui,minor,1311726,1156264408
Tongling,Tongling,30.9456,117.8114,China,CN,CHN,Anhui,,1311726,1156629570
Calgary,Calgary,51.0500,-114.0667,Canada,CA,CAN,Alberta,,1306784,1124690423
Meerut,Meerut,28.9800,77.7100,India,IN,IND,Uttar Pradesh,,1305429,1356390476
Jacksonville,Jacksonville,30.3322,-81.6749,United States,US,USA,Florida,,1303156,1840015031
Kuaidamao,Kuaidamao,41.7283,125.9397,China,CN,CHN,Jilin,minor,1302778,1156106507
Huazhou,Huazhou,21.6640,110.6396,China,CN,CHN,Guangdong,,1291668,1156282637
Milwaukee,Milwaukee,43.0642,-87.9675,United States,US,USA,Wisconsin,,1290221,1840003046
Wuzhong,Wuzhong,37.9978,106.1986,China,CN,CHN,Ningxia,minor,1284000,1156139322
Belém,Belem,-1.4558,-48.5039,Brazil,BR,BRA,Pará,admin,1280614,1076646823
Cacuaco,Cacuaco,-8.8053,13.2444,Angola,AO,AGO,Luanda,,1279488,1024559448
Rosario,Rosario,-32.9575,-60.6394,Argentina,AR,ARG,Santa Fe,minor,1276000,1032770677
Tangier,Tangier,35.7767,-5.8039,Morocco,MA,MAR,Tanger-Tétouan-Al Hoceïma,admin,1275428,1504861504
Antananarivo,Antananarivo,-18.9100,47.5250,Madagascar,MG,MDG,Antananarivo,primary,1275207,1450978461
Canagatan,Canagatan,18.0000,121.8000,Philippines,PH,PHL,Cagayan,,1273219,1608697675
Soweto,Soweto,-26.2678,27.8585,South Africa,ZA,ZAF,Gauteng,,1271628,1710627007
Providence,Providence,41.8230,-71.4187,United States,US,USA,Rhode Island,admin,1270529,1840003289
Xiantao,Xiantao,30.3280,113.4430,China,CN,CHN,Hubei,,1268715,1156216927
Jabalpur,Jabalpur,23.1667,79.9333,India,IN,IND,Madhya Pradesh,,1267564,1356115460
Huaiyin,Huaiyin,33.5819,119.0280,China,CN,CHN,Jiangsu,,1264000,1156662372
Yutan,Yutan,28.2780,112.5520,China,CN,CHN,Hunan,minor,1263332,1156592042
Kazan,Kazan,55.7964,49.1089,Russia,RU,RUS,Tatarstan,admin,1259173,1643101260
Bagam,Bagam,1.1300,104.0531,Indonesia,ID,IDN,Kepulauan Riau,,1256610,1360405604
Dayan,Dayan,26.8552,100.2259,China,CN,CHN,Yunnan,,1253878,1156828380
Comayagüela,Comayaguela,14.0980,-87.2100,Honduras,HN,HND,Francisco Morazán,,1250000,1340762485
Brussels,Brussels,50.8467,4.3525,Belgium,BE,BEL,Brussels-Capital Region,primary,1249597,1056469830
Laiwu,Laiwu,36.1833,117.6667,China,CN,CHN,Shandong,,1248636,1156207332
Huazhou,Huazhou,32.6880,112.0870,China,CN,CHN,Henan,minor,1247807,1156796734
Sharjah,Sharjah,25.3575,55.3908,United Arab Emirates,AE,ARE,Ash Shāriqah,admin,1247749,1784152993
Kalyān,Kalyan,19.2400,73.1300,India,IN,IND,Mahārāshtra,,1246381,1356172246
Rucheng,Rucheng,32.2460,120.5910,China,CN,CHN,Jiangsu,minor,1241700,1156323529
Barquisimeto,Barquisimeto,10.0636,-69.3347,Venezuela,VE,VEN,Lara,admin,1240714,1862860739
Yongcheng,Yongcheng,33.9299,116.4500,China,CN,CHN,Henan,,1240382,1156841802
Sumedang,Sumedang,-6.8400,107.9208,Indonesia,ID,IDN,Jawa Barat,,1240000,1360564479
Cần Thơ,Can Tho,10.0333,105.7833,Vietnam,VN,VNM,Cần Thơ,admin,1237300,1704783472
Suwon,Suwon,37.2667,127.0167,"Korea, South",KR,KOR,Gyeonggi,admin,1234300,1410679777
Yiwu,Yiwu,29.3069,120.0753,China,CN,CHN,Zhejiang,minor,1234015,1156078044
Vasai-Virar,Vasai-Virar,19.4700,72.8000,India,IN,IND,Mahārāshtra,,1221233,1356707797
Campinas,Campinas,-22.9009,-47.0573,Brazil,BR,BRA,São Paulo,minor,1213792,1076145766
Dadukou,Dadukou,26.5824,101.7184,China,CN,CHN,Sichuan,minor,1212203,1156901342
Lingcheng,Lingcheng,22.7080,110.3540,China,CN,CHN,Guangxi,,1211637,1156202191
Shuangyashan,Shuangyashan,46.6762,131.1416,China,CN,CHN,Heilongjiang,minor,1208803,1156245904
Nizhniy Novgorod,Nizhniy Novgorod,56.3269,44.0075,Russia,RU,RUS,Nizhegorodskaya Oblast’,admin,1204985,1643012126
Pānīpat,Panipat,29.3875,76.9700,India,IN,IND,Haryāna,,1202811,1356526780
Qom,Qom,34.6400,50.8764,Iran,IR,IRN,Qom,admin,1201158,1364701633
Mombasa,Mombasa,-4.0500,39.6667,Kenya,KE,KEN,Mombasa,admin,1200000,1404512373
Hargeysa,Hargeysa,9.5600,44.0650,Somalia,SO,SOM,Woqooyi Galbeed,admin,1200000,1706832021
Baidoa,Baidoa,3.1167,43.6500,Somalia,SO,SOM,Bay,admin,1200000,1706563100
Vārānasi,Varanasi,25.3189,83.0128,India,IN,IND,Uttar Pradesh,,1198491,1356145782
Hiroshima,Hiroshima,34.3914,132.4519,Japan,JP,JPN,Hiroshima,admin,1198021,1392373695
Chiang Mai,Chiang Mai,18.7953,98.9986,Thailand,TH,THA,Chiang Mai,admin,1198000,1764662886
Belgrade,Belgrade,44.8178,20.4569,Serbia,RS,SRB,Beograd,primary,1197714,1688374696
Maiduguri,Maiduguri,11.8372,13.1542,Nigeria,NG,NGA,Borno,admin,1197497,1566540296
Kalleli,Kalleli,9.2807,76.8697,India,IN,IND,Kerala,,1197412,1356160389
Batam Centre,Batam Centre,1.1272,104.0556,Indonesia,ID,IDN,Kepulauan Riau,,1196396,1360024213
Pingdu,Pingdu,36.7769,119.9884,China,CN,CHN,Shandong,,1191348,1156157078
Rongcheng,Rongcheng,26.2180,104.1030,China,CN,CHN,Yunnan,,1189813,1156122888
Mbandaka,Mbandaka,0.0478,18.2558,Congo (Kinshasa),CD,COD,Équateur,admin,1187837,1180720887
Xinyu,Xinyu,27.8186,114.9167,China,CN,CHN,Jiangxi,minor,1186700,1156138735
Doha,Doha,25.2867,51.5333,Qatar,QA,QAT,Ad Dawḩah,primary,1186023,1634459660
Shymkent,Shymkent,42.3167,69.5958,Kazakhstan,KZ,KAZ,Shymkent,admin,1184113,1398791401
Tripoli,Tripoli,32.8872,13.1914,Libya,LY,LBY,Ţarābulus,primary,1183000,1434201852
Srīnagar,Srinagar,34.0900,74.7900,India,IN,IND,Jammu and Kashmīr,admin,1180570,1356442950
Nashville,Nashville,36.1715,-86.7842,United States,US,USA,Tennessee,admin,1178679,1840036155
Chelyabinsk,Chelyabinsk,55.1547,61.3758,Russia,RU,RUS,Chelyabinskaya Oblast’,admin,1177058,1643224011
Aurangābād,Aurangabad,19.8800,75.3200,India,IN,IND,Mahārāshtra,,1175116,1356840670
Cilacap,Cilacap,-7.7167,109.0170,Indonesia,ID,IDN,Jawa Tengah,minor,1174964,1360503809
Xinhualu,Xinhualu,34.3964,113.7402,China,CN,CHN,Henan,minor,1172237,1156544851
Salt Lake City,Salt Lake City,40.7776,-111.9311,United States,US,USA,Utah,admin,1169033,1840021383
Guankou,Guankou,28.1637,113.6433,China,CN,CHN,Hunan,minor,1168056,1156249346
Bandar Lampung,Bandar Lampung,-5.4500,105.2667,Indonesia,ID,IDN,Lampung,admin,1166761,1360243491
Dhanbād,Dhanbad,23.7998,86.4305,India,IN,IND,Jhārkhand,,1162472,1356103392
Nay Pyi Taw,Nay Pyi Taw,19.7475,96.1150,Burma,MM,MMR,Nay Pyi Taw,primary,1160242,1104838105
Aba,Aba,5.1167,7.3667,Nigeria,NG,NGA,Abia,minor,1160000,1566262000
Jingling,Jingling,30.6640,113.1670,China,CN,CHN,Hubei,,1158640,1156060544
Zhuji,Zhuji,29.7167,120.2333,China,CN,CHN,Zhejiang,minor,1157938,1156504227
Tegucigalpa,Tegucigalpa,14.1057,-87.2040,Honduras,HN,HND,Francisco Morazán,primary,1157509,1340344059
Kigali,Kigali,-1.9536,30.0606,Rwanda,RW,RWA,Kigali,primary,1156663,1646923541
Samara,Samara,53.2028,50.1408,Russia,RU,RUS,Samarskaya Oblast’,admin,1156659,1643205757
Yingtan,Yingtan,28.2721,117.0395,China,CN,CHN,Jiangxi,,1154223,1156301061
Edmonton,Edmonton,53.5344,-113.4903,Canada,CA,CAN,Alberta,admin,1151635,1124290735
Raleigh,Raleigh,35.8324,-78.6429,United States,US,USA,North Carolina,admin,1150010,1840014497
Bishkek,Bishkek,42.8667,74.5667,Kyrgyzstan,KG,KGZ,Bishkek,primary,1145044,1417191971
Bujumbura,Bujumbura,-3.3833,29.3667,Burundi,BI,BDI,Bujumbura Mairie,primary,1143202,1108101689
Guyuan,Guyuan,36.0100,106.2570,China,CN,CHN,Ningxia,,1142142,1156817541
Leiyang,Leiyang,26.4223,112.8598,China,CN,CHN,Hunan,minor,1140675,1156057789
Krasnodar,Krasnodar,45.0333,38.9667,Russia,RU,RUS,Krasnodarskiy Kray,admin,1138654,1643438227
Rostov,Rostov,47.2225,39.7100,Russia,RU,RUS,Rostovskaya Oblast’,admin,1135968,1643013518
Maputo,Maputo,-25.9153,32.5764,Mozambique,MZ,MOZ,Maputo,primary,1133200,1508074843
Bukavu,Bukavu,-2.5061,28.8608,Congo (Kinshasa),CD,COD,Sud-Kivu,admin,1133000,1180475821
Amritsar,Amritsar,31.6400,74.8600,India,IN,IND,Punjab,,1132383,1356926507
Shagamu,Shagamu,6.8333,3.6500,Nigeria,NG,NGA,Ogun,minor,1132270,1566202131
Alīgarh,Aligarh,27.8800,78.0800,India,IN,IND,Uttar Pradesh,,1131160,1356076391
Zhangye,Zhangye,38.9248,100.4499,China,CN,CHN,Gansu,minor,1131016,1156180353
Ufa,Ufa,54.7261,55.9475,Russia,RU,RUS,Bashkortostan,admin,1128787,1643722928
Santo Domingo,Santo Domingo,18.4764,-69.8933,Dominican Republic,DO,DOM,Ozama,primary,1128678,1214636202
Ulsan,Ulsan,35.5500,129.3167,"Korea, South",KR,KOR,Ulsan,admin,1127553,1410134602
Rongcheng,Rongcheng,29.8402,112.9048,China,CN,CHN,Hubei,minor,1120822,1156102432
Tbilisi,Tbilisi,41.7225,44.7925,Georgia,GE,GEO,Tbilisi,primary,1118035,1268203191
Guwāhāti,Guwahati,26.1722,91.7458,India,IN,IND,Assam,,1116267,1356593800
Fès,Fes,34.0433,-5.0033,Morocco,MA,MAR,Fès-Meknès,admin,1112072,1504861997
Yingchuan,Yingchuan,34.1420,113.4890,China,CN,CHN,Henan,minor,1109782,1156748426
Ninh Bình,Ninh Binh,20.2500,105.8333,Vietnam,VN,VNM,Ninh Bình,admin,1106913,1704442748
Yerevan,Yerevan,40.1814,44.5144,Armenia,AM,ARM,Yerevan,primary,1106300,1051074169
Mwanza,Mwanza,-2.5167,32.9000,Tanzania,TZ,TZA,Mwanza,admin,1104521,1834011288
Omsk,Omsk,54.9833,73.3667,Russia,RU,RUS,Omskaya Oblast’,admin,1104485,1643360863
Mexicali,Mexicali,32.6633,-115.4678,Mexico,MX,MEX,Baja California,admin,1102342,1484788702
Sevilla,Sevilla,37.3900,-5.9900,Spain,ES,ESP,Andalusia,admin,1100000,1724991838
Ikare,Ikare,7.5167,5.7500,Nigeria,NG,NGA,Ondo,minor,1099931,1566683694
Dingzhou,Dingzhou,38.5160,114.9900,China,CN,CHN,Hebei,minor,1095986,1156656582
Tamale,Tamale,9.4075,-0.8533,Ghana,GH,GHA,Northern,admin,1095808,1288890688
Yuyao,Yuyao,30.0500,121.1500,China,CN,CHN,Zhejiang,,1095000,1156221984
Goiânia,Goiania,-16.6806,-49.2564,Brazil,BR,BRA,Goiás,admin,1093007,1076034054
Krasnoyarsk,Krasnoyarsk,56.0089,92.8719,Russia,RU,RUS,Krasnoyarskiy Kray,admin,1092851,1643544975
Cologne,Cologne,50.9364,6.9528,Germany,DE,DEU,North Rhine-Westphalia,,1087353,1276015998
Ubungo,Ubungo,-6.7889,39.2056,Tanzania,TZ,TZA,Dar es Salaam,,1086912,1834358621
Yicheng,Yicheng,31.3600,119.8150,China,CN,CHN,Jiangsu,minor,1082929,1156292419
Richmond,Richmond,37.5295,-77.4756,United States,US,USA,Virginia,admin,1081248,1840001698
Kisangani,Kisangani,0.5167,25.2000,Congo (Kinshasa),CD,COD,Tshopo,admin,1081000,1180478201
Ezhou,Ezhou,30.3914,114.8949,China,CN,CHN,Hubei,minor,1079353,1156414637
Astana,Astana,51.1472,71.4222,Kazakhstan,KZ,KAZ,Nur-Sultan,primary,1078362,1398516045
Zhufeng,Zhufeng,36.0000,119.4167,China,CN,CHN,Shandong,,1078178,1156522825
Nezahualcóyotl,Nezahualcoyotl,19.4081,-99.0186,Mexico,MX,MEX,México,minor,1077208,1484074285
Nouakchott,Nouakchott,18.0858,-15.9785,Mauritania,MR,MRT,Nouakchott Ouest,primary,1077169,1478414984
Hāora,Haora,22.5800,88.3294,India,IN,IND,West Bengal,,1077075,1356986516
Tongjin,Tongjin,37.2333,127.2000,"Korea, South",KR,KOR,Gyeonggi,,1076369,1410160862
Rānchi,Ranchi,23.3600,85.3300,India,IN,IND,Jhārkhand,admin,1073440,1356110588
Ciudad Nezahualcóyotl,Ciudad Nezahualcoyotl,19.4006,-99.0148,Mexico,MX,MEX,México,,1072676,1484016661
Gwalior,Gwalior,26.2125,78.1775,India,IN,IND,Madhya Pradesh,,1069276,1356363967
Ottawa,Ottawa,45.4247,-75.6950,Canada,CA,CAN,Ontario,primary,1068821,1124399363
Haicheng,Haicheng,40.8824,122.6852,China,CN,CHN,Liaoning,minor,1067905,1156052713
Jianguang,Jianguang,28.1958,115.7833,China,CN,CHN,Jiangxi,,1065641,1156545200
Goyang,Goyang,37.6500,126.8000,"Korea, South",KR,KOR,Gyeonggi,minor,1061929,1410511255
Sendai,Sendai,38.2682,140.8694,Japan,JP,JPN,Miyagi,admin,1061177,1392457903
Xibeijie,Xibeijie,39.7334,98.4943,China,CN,CHN,Gansu,minor,1055706,1156960560
Chandīgarh,Chandigarh,30.7500,76.7800,India,IN,IND,,admin,1055450,1356739179
Voronezh,Voronezh,51.6717,39.2106,Russia,RU,RUS,Voronezhskaya Oblast’,admin,1051995,1643811064
Managua,Managua,12.1364,-86.2514,Nicaragua,NI,NIC,Managua,primary,1051236,1558296252
Zhongwei,Zhongwei,37.5002,105.1968,China,CN,CHN,Ningxia,minor,1046000,1156956616
Jiancheng,Jiancheng,30.3800,104.5300,China,CN,CHN,Sichuan,minor,1045900,1156775521
Mersin,Mersin,36.8000,34.6333,Turkey,TR,TUR,Mersin,admin,1040507,1792520282
Shouguang,Shouguang,36.8570,118.7910,China,CN,CHN,Shandong,,1039205,1156787809
Liangshi,Liangshi,27.2600,111.7442,China,CN,CHN,Hunan,,1038416,1156366507
São Luís,Sao Luis,-2.5300,-44.3028,Brazil,BR,BRA,Maranhão,admin,1037775,1076819308
Jodhpur,Jodhpur,26.2800,73.0200,India,IN,IND,Rājasthān,,1033918,1356727084
Memphis,Memphis,35.1087,-89.9663,United States,US,USA,Tennessee,,1033394,1840015457
Matola,Matola,-25.9667,32.4667,Mozambique,MZ,MOZ,Maputo,,1032197,1508768577
Ogbomoso,Ogbomoso,8.1333,4.2500,Nigeria,NG,NGA,Oyo,minor,1032000,1566373448
Sanya,Sanya,18.2533,109.5036,China,CN,CHN,Hainan,minor,1031396,1156373900
Rangapukur,Rangapukur,25.5206,89.2147,Bangladesh,BD,BGD,Rangpur,,1031388,1050032005
Ashgabat,Ashgabat,37.9375,58.3800,Turkmenistan,TM,TKM,Aşgabat,primary,1030063,1795049992
Enugu,Enugu,6.5000,7.5000,Nigeria,NG,NGA,Enugu,admin,1029400,1566212729
Linhai,Linhai,28.8500,121.1167,China,CN,CHN,Zhejiang,,1028813,1156451663
Perm,Perm,58.0000,56.3167,Russia,RU,RUS,Permskiy Kray,admin,1026908,1643294442
Shubrā al Khaymah,Shubra al Khaymah,30.1286,31.2422,Egypt,EG,EGY,Al Qalyūbīyah,,1025569,1818909612
Monrovia,Monrovia,6.3133,-10.8014,Liberia,LR,LBR,Montserrado,primary,1021762,1430477826
Islamabad,Islamabad,33.6931,73.0639,Pakistan,PK,PAK,Islamabad,primary,1014825,1586306717
Xinyi,Xinyi,22.3549,110.9468,China,CN,CHN,Guangdong,,1013900,1156936644
Thủ Đức,Thu Duc,10.8266,106.7609,Vietnam,VN,VNM,Hồ Chí Minh,minor,1013795,1704361621
Āqchah,Aqchah,36.9114,66.1858,Afghanistan,AF,AFG,Jowzjān,minor,1012000,1004364776
Odesa,Odesa,46.4920,30.7081,Ukraine,UA,UKR,Odeska Oblast,admin,1010537,1804178102
Raipur,Raipur,21.2444,81.6306,India,IN,IND,Chhattīsgarh,admin,1010087,1356374983
Namangan,Namangan,41.0011,71.6683,Uzbekistan,UZ,UZB,Namangan,admin,1010000,1860894033
Changwon,Changwon,35.2708,128.6631,"Korea, South",KR,KOR,Gyeongnam,admin,1009998,1410592618
Arequipa,Arequipa,-16.3989,-71.5369,Peru,PE,PER,Arequipa,admin,1008290,1604723954
Tshikapa,Tshikapa,-6.4167,20.8000,Congo (Kinshasa),CD,COD,Kasaï,admin,1006387,1180581239
Volgograd,Volgograd,48.7086,44.5147,Russia,RU,RUS,Volgogradskaya Oblast’,admin,1004763,1643577201
Morelia,Morelia,19.7683,-101.1894,Mexico,MX,MEX,Michoacán,admin,1002461,1484669072
Kota,Kota,25.1800,75.8300,India,IN,IND,Rājasthān,,1001694,1356820310
Quetta,Quetta,30.1833,67.0000,Pakistan,PK,PAK,Balochistan,admin,1001205,1586556108
Oklahoma City,Oklahoma City,35.4676,-97.5136,United States,US,USA,Oklahoma,admin,1000207,1840020428
Domaa-Ahenkro,Domaa-Ahenkro,7.2739,-2.8735,Ghana,GH,GHA,Bono,,1000000,1288459533
Bareilly,Bareilly,28.3667,79.4306,India,IN,IND,Uttar Pradesh,,1000000,1356698199
Stockholm,Stockholm,59.3275,18.0547,Sweden,SE,SWE,Stockholm,primary,995574,1752425602
Bordeaux,Bordeaux,44.8400,-0.5800,France,FR,FRA,Nouvelle-Aquitaine,admin,994920,1250449238
Lilongwe,Lilongwe,-13.9669,33.7873,Malawi,MW,MWI,Lilongwe,primary,989318,1454688499
Port-au-Prince,Port-au-Prince,18.5425,-72.3386,Haiti,HT,HTI,Ouest,primary,987310,1332401940
Pekanbaru,Pekanbaru,0.5092,101.4453,Indonesia,ID,IDN,Riau,admin,983356,1360422679
Chiba,Chiba,35.6073,140.1064,Japan,JP,JPN,Chiba,admin,975014,1392107144
Kirkuk,Kirkuk,35.4667,44.4000,Iraq,IQ,IRQ,Karkūk,admin,975000,1368344172
Hartford,Hartford,41.7661,-72.6834,United States,US,USA,Connecticut,admin,969171,1840004773
Dnipro,Dnipro,48.4675,35.0400,Ukraine,UA,UKR,Dnipropetrovska Oblast,admin,968502,1804152933
Marrakech,Marrakech,31.6300,-8.0089,Morocco,MA,MAR,Marrakech-Safi,admin,966987,1504172585
Cebu City,Cebu City,10.3200,123.7500,Philippines,PH,PHL,Cebu,admin,964169,1608136151
Asmara,Asmara,15.3358,38.9411,Eritrea,ER,ERI,Ma’ĭkel,primary,963000,1232791236
Maceió,Maceio,-9.6658,-35.7350,Brazil,BR,BRA,Alagoas,admin,957916,1076440479
Freetown,Freetown,8.4833,-13.2331,Sierra Leone,SL,SLE,Western Area,primary,951000,1694085071
Santo Domingo Este,Santo Domingo Este,18.4855,-69.8734,Dominican Republic,DO,DOM,Ozama,admin,948855,1214664832
Vientiane,Vientiane,17.9800,102.6300,Laos,LA,LAO,Viangchan,primary,948487,1418732714
Kermānshāh,Kermanshah,34.3369,47.0911,Iran,IR,IRN,Kermānshāh,admin,946651,1364535690
Jerusalem,Jerusalem,31.7789,35.2256,Israel,IL,ISR,Jerusalem,primary,936425,1376261644
Trujillo,Trujillo,-8.1120,-79.0288,Peru,PE,PER,La Libertad,admin,935147,1604613706
Aguascalientes,Aguascalientes,21.8760,-102.2960,Mexico,MX,MEX,Aguascalientes,admin,934424,1484666646
Khulna,Khulna,22.8167,89.5500,Bangladesh,BD,BGD,Khulna,admin,928891,1050667339
Chihuahua,Chihuahua,28.6369,-106.0769,Mexico,MX,MEX,Chihuahua,admin,925762,1484335603
Cartagena,Cartagena,10.4000,-75.5000,Colombia,CO,COL,Bolívar,admin,914552,1170886102
Naples,Naples,40.8358,14.2486,Italy,IT,ITA,Campania,admin,913462,1380646673
Santiago del Estero,Santiago del Estero,-27.7833,-64.2667,Argentina,AR,ARG,Santiago del Estero,admin,911506,1032492280
Masbate,Masbate,12.2700,123.5800,Philippines,PH,PHL,Masbate,admin,908920,1608802236
Owerri,Owerri,5.4850,7.0350,Nigeria,NG,NGA,Imo,admin,908109,1566679132
La Plata,La Plata,-34.9211,-57.9544,Argentina,AR,ARG,Buenos Aires,admin,904789,1032403831
Bobo-Dioulasso,Bobo-Dioulasso,11.1833,-4.2833,Burkina Faso,BF,BFA,Hauts-Bassins,admin,903887,1854348796
Ad Dammām,Ad Dammam,26.4333,50.1000,Saudi Arabia,SA,SAU,Ash Sharqīyah,admin,903312,1682452296
Donetsk,Donetsk,48.0028,37.8053,Ukraine,UA,UKR,Donetska Oblast,admin,901645,1804963805
Bunia,Bunia,1.5667,30.2500,Congo (Kinshasa),CD,COD,Ituri,admin,900666,1180006418
Bucaramanga,Bucaramanga,7.1333,-73.0000,Colombia,CO,COL,Santander,admin,893040,1170940590
Mérida,Merida,20.9667,-89.6167,Mexico,MX,MEX,Yucatán,admin,892363,1484396779
Bangui,Bangui,4.3733,18.5628,Central African Republic,CF,CAF,Bangui,primary,889231,1140080881
Abeokuta,Abeokuta,7.1608,3.3483,Nigeria,NG,NGA,Ogun,admin,888924,1566979497
Antipolo,Antipolo,14.5842,121.1763,Philippines,PH,PHL,Rizal,admin,887399,1608824345
Taguig City,Taguig City,14.5200,121.0500,Philippines,PH,PHL,Taguig,admin,886722,1608766695
Tabūk,Tabuk,28.3972,36.5789,Saudi Arabia,SA,SAU,Tabūk,admin,886036,1682590992
Panama City,Panama City,8.9711,-79.5347,Panama,PA,PAN,Panamá,primary,880691,1591672475
As Sulaymānīyah,As Sulaymaniyah,35.5500,45.4333,Iraq,IQ,IRQ,As Sulaymānīyah,admin,878146,1368735317
Marseille,Marseille,43.2964,5.3700,France,FR,FRA,Provence-Alpes-Côte d’Azur,admin,877215,1250774071
Ar Ramādī,Ar Ramadi,33.4258,43.2992,Iraq,IQ,IRQ,Al Anbār,admin,874543,1368838855
Teresina,Teresina,-5.0903,-42.8167,Brazil,BR,BRA,Piauí,admin,868075,1076727667
Lhasa,Lhasa,29.6534,91.1719,China,CN,CHN,Tibet,admin,867891,1156369972
Ipoh,Ipoh,4.6000,101.0650,Malaysia,MY,MYS,Perak,admin,866772,1458423505
Saltillo,Saltillo,25.4231,-100.9919,Mexico,MX,MEX,Coahuila,admin,864431,1484107245
Aden,Aden,12.8000,45.0333,Yemen,YE,YEM,‘Adan,admin,863000,1887867886
Ikeja,Ikeja,6.6000,3.3500,Nigeria,NG,NGA,Lagos,admin,861300,1566486388
Tyumen,Tyumen,57.1500,65.5333,Russia,RU,RUS,Tyumenskaya Oblast’,admin,861100,1643040435
Cochabamba,Cochabamba,-17.3883,-66.1597,Bolivia,BO,BOL,Cochabamba,admin,856198,1068793894
Hermosillo,Hermosillo,29.0989,-110.9542,Mexico,MX,MEX,Sonora,admin,855563,1484015319
Cheongju,Cheongju,36.6333,127.4833,"Korea, South",KR,KOR,Chungbuk,admin,852018,1410964361
Thanh Hóa,Thanh Hoa,19.8075,105.7764,Vietnam,VN,VNM,Thanh Hóa,admin,850000,1704016079
Akure,Akure,7.2500,5.1950,Nigeria,NG,NGA,Ondo,admin,847903,1566568277
Ilorin,Ilorin,8.5000,4.5500,Nigeria,NG,NGA,Kwara,admin,847582,1566480168
Erbil,Erbil,36.1911,44.0094,Iraq,IQ,IRQ,Arbīl,admin,846000,1368578192
Kathmandu,Kathmandu,27.7100,85.3200,Nepal,NP,NPL,,primary,845767,1524589448
Turin,Turin,45.0792,7.6761,Italy,IT,ITA,Piedmont,admin,841600,1380244627
Pietermaritzburg,Pietermaritzburg,-29.6167,30.3833,South Africa,ZA,ZAF,KwaZulu-Natal,admin,839327,1710690280
Saratov,Saratov,51.5300,46.0350,Russia,RU,RUS,Saratovskaya Oblast’,admin,838042,1643556540
Bhubaneshwar,Bhubaneshwar,20.2700,85.8400,India,IN,IND,Odisha,admin,837737,1356140143
João Pessoa,Joao Pessoa,-7.1200,-34.8800,Brazil,BR,BRA,Paraíba,admin,833932,1076922014
Samarinda,Samarinda,-0.5000,117.1378,Indonesia,ID,IDN,Kalimantan Timur,admin,831460,1360684979
Eskişehir,Eskisehir,39.7767,30.5206,Turkey,TR,TUR,Eskişehir,admin,820568,1792933981
Barcelona,Barcelona,10.1403,-64.6833,Venezuela,VE,VEN,Anzoátegui,admin,815141,1862418619
Culiacán,Culiacan,24.8069,-107.3939,Mexico,MX,MEX,Sinaloa,admin,808416,1484516810
N’Djamena,N'Djamena,12.1053,15.0447,Chad,TD,TCD,N’Djamena,primary,807000,1148708596
Cúcuta,Cucuta,7.8942,-72.5039,Colombia,CO,COL,Norte de Santander,admin,806378,1170743755
Kraków,Krakow,50.0614,19.9372,Poland,PL,POL,Małopolskie,admin,804237,1616172264
Oran,Oran,35.6969,-0.6331,Algeria,DZ,DZA,Oran,admin,803329,1012126319
Pasig City,Pasig City,14.5605,121.0765,Philippines,PH,PHL,Pasig,admin,803159,1608278212
Thessaloníki,Thessaloniki,40.6403,22.9356,Greece,GR,GRC,Kentrikí Makedonía,admin,802572,1300397999
Blantyre,Blantyre,-15.7861,35.0058,Malawi,MW,MWI,Blantyre,admin,800264,1454145012
Libreville,Libreville,0.3901,9.4544,Gabon,GA,GAB,Estuaire,primary,797003,1266952885
Querétaro,Queretaro,20.5875,-100.3928,Mexico,MX,MEX,Querétaro,admin,794789,1484604775
Niigata,Niigata,37.9161,139.0364,Japan,JP,JPN,Niigata,admin,790646,1392913753
Vinh,Vinh,18.6667,105.6667,Vietnam,VN,VNM,Nghệ An,admin,790000,1704960059
Lubango,Lubango,-14.9167,13.5000,Angola,AO,AGO,Huíla,admin,776249,1024669127
Homs,Homs,34.7319,36.7181,Syria,SY,SYR,Ḩimş,admin,775404,1760013934
San Luis Potosí,San Luis Potosi,22.1511,-100.9761,Mexico,MX,MEX,San Luis Potosí,admin,772828,1484583620
Khŭjand,Khujand,40.2833,69.6333,Tajikistan,TJ,TJK,Sughd,admin,770000,1762372787
Hamhŭng,Hamhung,39.9167,127.5333,"Korea, North",KP,PRK,Hamnam,admin,768551,1408482040
Erzurum,Erzurum,39.9086,41.2769,Turkey,TR,TUR,Erzurum,admin,767848,1792511957
Zagreb,Zagreb,45.8131,15.9772,Croatia,HR,HRV,"Zagreb, Grad",primary,767131,1191233290
Dodoma,Dodoma,-6.1731,35.7419,Tanzania,TZ,TZA,Dodoma,primary,765179,1834288497
Kaduna,Kaduna,10.5167,7.4333,Nigeria,NG,NGA,Kaduna,admin,760084,1566368729
Winnipeg,Winnipeg,49.8844,-97.1464,Canada,CA,CAN,Manitoba,admin,758515,1124224963
Colombo,Colombo,6.9167,79.8333,Sri Lanka,LK,LKA,Western,primary,752993,1144251314
Natal,Natal,-5.7950,-35.2089,Brazil,BR,BRA,Rio Grande do Norte,admin,751300,1076697777
Gdańsk,Gdansk,54.3475,18.6453,Poland,PL,POL,Pomorskie,admin,749786,1616406372
Andijon,Andijon,40.7833,72.3333,Uzbekistan,UZ,UZB,Andijon,admin,747800,1860445095
Gaalkacyo,Gaalkacyo,6.7697,47.4308,Somalia,SO,SOM,Mudug,admin,745000,1706067930
Thiruvananthapuram,Thiruvananthapuram,8.5241,76.9366,India,IN,IND,Kerala,admin,743691,1356024354
Nampula,Nampula,-15.1167,39.2667,Mozambique,MZ,MOZ,Nampula,admin,743000,1508958445
Bouaké,Bouake,7.6833,-5.0331,Côte d’Ivoire,CI,CIV,Vallée du Bandama,admin,740000,1384983838
Cabinda,Cabinda,-5.5600,12.1900,Angola,AO,AGO,Cabinda,admin,739182,1024474012
Kumamoto,Kumamoto,32.8031,130.7078,Japan,JP,JPN,Kumamoto,admin,738385,1392106283
Kermān,Kerman,30.2625,57.0575,Iran,IR,IRN,Kermān,admin,738374,1364554896
Orūmīyeh,Orumiyeh,37.5439,45.0647,Iran,IR,IRN,Āz̄arbāyjān-e Gharbī,admin,736224,1364158221
Quebec City,Quebec City,46.8139,-71.2081,Canada,CA,CAN,Quebec,admin,733156,1124823933
Osogbo,Osogbo,7.7667,4.5667,Nigeria,NG,NGA,Osun,admin,731000,1566395088
Cagayan de Oro,Cagayan de Oro,8.4800,124.6500,Philippines,PH,PHL,Cagayan de Oro,admin,728402,1608831546
Manama,Manama,26.2233,50.5875,Bahrain,BH,BHR,Al ‘Āşimah,primary,727000,1048989486
An Najaf,An Najaf,32.0290,44.3396,Iraq,IQ,IRQ,An Najaf,admin,724700,1368003357
Okayama,Okayama,34.6500,133.9167,Japan,JP,JPN,Okayama,admin,720043,1392954750
Concepción,Concepcion,-36.8282,-73.0514,Chile,CL,CHL,Biobío,admin,719944,1152838958
San Pedro Sula,San Pedro Sula,15.5062,-88.0249,Honduras,HN,HND,Cortés,admin,719064,1340568412
Lviv,Lviv,49.8425,24.0322,Ukraine,UA,UKR,Lvivska Oblast,admin,717273,1804939658
Valenzuela,Valenzuela,14.7000,120.9800,Philippines,PH,PHL,Valenzuela,admin,714978,1608492120
Huambo,Huambo,-12.7767,15.7347,Angola,AO,AGO,Huambo,admin,713134,1024079828
Zaporizhzhia,Zaporizhzhia,47.8500,35.1175,Ukraine,UA,UKR,Zaporizka Oblast,admin,710052,1804644752
Oslo,Oslo,59.9133,10.7389,Norway,NO,NOR,Oslo,primary,709037,1578324706
George Town,George Town,5.4136,100.3294,Malaysia,MY,MYS,Pulau Pinang,admin,708127,1458236750
Boosaaso,Boosaaso,11.2800,49.1800,Somalia,SO,SOM,Bari,admin,700906,1706054548
Latakia,Latakia,35.5400,35.7800,Syria,SY,SYR,Al Lādhiqīyah,admin,700000,1760555544
General Santos,General Santos,6.1200,125.1700,Philippines,PH,PHL,General Santos,admin,697315,1608171585
Ḩamāh,Hamah,35.1503,36.7300,Syria,SY,SYR,Ḩamāh,admin,696863,1760197502
Bauchi,Bauchi,10.5000,10.0000,Nigeria,NG,NGA,Bauchi,admin,693700,1566483284
Lokoja,Lokoja,7.8019,6.7442,Nigeria,NG,NGA,Kogi,admin,692050,1566772925
Karbalā’,Karbala',32.6167,44.0333,Iraq,IQ,IRQ,Karbalā’,admin,690100,1368597794
City of Parañaque,City of Paranaque,14.5008,120.9915,Philippines,PH,PHL,Parañaque,admin,689992,1608379532
Zaragoza,Zaragoza,41.6500,-0.8833,Spain,ES,ESP,Aragon,admin,686986,1724907391
Shizuoka,Shizuoka,34.9756,138.3828,Japan,JP,JPN,Shizuoka,admin,685589,1392235505
Pontianak,Pontianak,-0.0206,109.3414,Indonesia,ID,IDN,Kalimantan Barat,admin,680880,1360992394
Rasht,Rasht,37.2744,49.5889,Iran,IR,IRN,Gīlān,admin,679995,1364630382
Cotonou,Cotonou,6.3667,2.4333,Benin,BJ,BEN,Littoral,primary,679012,1204955174
Gothenburg,Gothenburg,57.7075,11.9675,Sweden,SE,SWE,Västra Götaland,admin,674529,1752059374
Wrocław,Wroclaw,51.1100,17.0325,Poland,PL,POL,Dolnośląskie,admin,672929,1616108520
Murcia,Murcia,37.9861,-1.1303,Spain,ES,ESP,Murcia,admin,672773,1724107739
Łódź,Lodz,51.7769,19.4547,Poland,PL,POL,Łódzkie,admin,670642,1616832750
Denpasar,Denpasar,-8.6717,115.2339,Indonesia,ID,IDN,Bali,admin,670210,1360848527
Ch’ŏngjin,Ch'ongjin,41.7833,129.7667,"Korea, North",KP,PRK,Hambuk,admin,667929,1408498177
Bulawayo,Bulawayo,-20.1700,28.5800,Zimbabwe,ZW,ZWE,Bulawayo,admin,665952,1716032632
Aracaju,Aracaju,-10.9111,-37.0717,Brazil,BR,BRA,Sergipe,admin,664908,1076527830
Villavicencio,Villavicencio,4.1500,-73.6333,Colombia,CO,COL,Meta,admin,664148,1170426927
Campo Grande,Campo Grande,-20.4686,-54.6222,Brazil,BR,BRA,Mato Grosso do Sul,admin,663621,1076660445
Makhachkala,Makhachkala,42.9825,47.5050,Russia,RU,RUS,Dagestan,admin,662660,1643580480
Banjarmasin,Banjarmasin,-3.3200,114.5925,Indonesia,ID,IDN,Kalimantan Selatan,admin,662230,1360685223
Jalingo,Jalingo,8.9000,11.3667,Nigeria,NG,NGA,Taraba,admin,660213,1566732241
Durango,Durango,24.0250,-104.6675,Mexico,MX,MEX,Durango,admin,654876,1484854616
Huế,Hue,16.4619,107.5955,Vietnam,VN,VNM,Thừa Thiên-Huế,admin,652572,1704016023
Denizli,Denizli,37.7833,29.0964,Turkey,TR,TUR,Denizli,admin,651200,1792161179
Maturín,Maturin,9.7500,-63.1830,Venezuela,VE,VEN,Monagas,admin,647459,1862546949
Chisinau,Chisinau,47.0228,28.8353,Moldova,MD,MDA,Chişinău,primary,639000,1498011437
Tallinn,Tallinn,59.4372,24.7453,Estonia,EE,EST,Tallinn,primary,638076,1233260021
Las Palmas,Las Palmas,28.1258,-15.4353,Spain,ES,ESP,Canary Islands,admin,635000,1724501748
Benghazi,Benghazi,32.1167,20.0667,Libya,LY,LBY,Banghāzī,admin,631555,1434915572
Düsseldorf,Dusseldorf,51.2256,6.7767,Germany,DE,DEU,North Rhine-Westphalia,admin,631217,1276615258
Palermo,Palermo,38.1157,13.3613,Italy,IT,ITA,Sicilia,admin,630167,1380428434
Baton Rouge,Baton Rouge,30.4420,-91.1311,United States,US,USA,Louisiana,admin,630063,1840013941
Makati City,Makati City,14.5567,121.0214,Philippines,PH,PHL,Makati,admin,629616,1608725647
Ndola,Ndola,-12.9689,28.6325,Zambia,ZM,ZMB,Copperbelt,admin,627503,1894032745
Irkutsk,Irkutsk,52.2892,104.2800,Russia,RU,RUS,Irkutskaya Oblast’,admin,623736,1643439037
Barnaul,Barnaul,53.3486,83.7764,Russia,RU,RUS,Altayskiy Kray,admin,623057,1643318931
Jos,Jos,9.9167,8.8903,Nigeria,NG,NGA,Plateau,admin,622802,1566773679
Al Manşūrah,Al Mansurah,31.0500,31.3833,Egypt,EG,EGY,Ad Daqahlīyah,admin,621953,1818255319
Izhevsk,Izhevsk,56.8333,53.1833,Russia,RU,RUS,Udmurtiya,admin,618776,1643983138
Arusha,Arusha,-3.3667,36.6833,Tanzania,TZ,TZA,Arusha,admin,617631,1834484937
Khabarovsk,Khabarovsk,48.4833,135.0833,Russia,RU,RUS,Khabarovskiy Kray,admin,615570,1643175363
Kandahār,Kandahar,31.6200,65.7158,Afghanistan,AF,AFG,Kandahār,admin,614254,1004003059
Oujda-Angad,Oujda-Angad,34.6867,-1.9114,Morocco,MA,MAR,Oriental,admin,614000,1504891036
Serang,Serang,-6.1200,106.1503,Indonesia,ID,IDN,Banten,admin,613356,1360329102
Ulyanovsk,Ulyanovsk,54.3167,48.3667,Russia,RU,RUS,Ul’yanovskaya Oblast’,admin,613334,1643668944
Jambi,Jambi,-1.5900,103.6100,Indonesia,ID,IDN,Jambi,admin,612162,1360645580
Kuantan,Kuantan,3.8300,103.3200,Malaysia,MY,MYS,Pahang,admin,607778,1458763489
San Miguel de Tucumán,San Miguel de Tucuman,-26.8167,-65.2167,Argentina,AR,ARG,Tucumán,admin,605767,1032233996
Ar Rayyān,Ar Rayyan,25.2500,51.4000,Qatar,QA,QAT,Ar Rayyān,admin,605712,1634097551
Riga,Riga,56.9475,24.1069,Latvia,LV,LVA,Rīga,primary,605273,1428586192
Columbia,Columbia,34.0378,-80.9036,United States,US,USA,South Carolina,admin,605083,1840014730
Malanje,Malanje,-9.5333,16.3500,Angola,AO,AGO,Malanje,admin,604215,1024774947
Djibouti,Djibouti,11.5944,43.1481,Djibouti,DJ,DJI,Djibouti,primary,603900,1262028958
Albany,Albany,42.6664,-73.7987,United States,US,USA,New York,admin,602242,1840000417
Bacolod,Bacolod,10.6765,122.9509,Philippines,PH,PHL,Bacolod,admin,600783,1608244137
Garoua,Garoua,9.3000,13.4000,Cameroon,CM,CMR,Nord,admin,600000,1120803808
Bamenda,Bamenda,5.9614,10.1517,Cameroon,CM,CMR,North-West,admin,600000,1120909610
Bafoussam,Bafoussam,5.4667,10.4167,Cameroon,CM,CMR,Ouest,admin,600000,1120435460
Haifa,Haifa,32.8192,34.9992,Israel,IL,ISR,Haifa,admin,600000,1376133727
Tunis,Tunis,36.8064,10.1817,Tunisia,TN,TUN,Tunis,primary,599368,1788742103
Şanlıurfa,Sanliurfa,37.1583,38.7917,Turkey,TR,TUR,Şanlıurfa,admin,596637,1792937570
Al Mukallā,Al Mukalla,14.5333,49.1333,Yemen,YE,YEM,Ḩaḑramawt,admin,594951,1887202594
Kagoshima,Kagoshima,31.5969,130.5572,Japan,JP,JPN,Kagoshima,admin,593754,1392120675
Dublin,Dublin,53.3497,-6.2603,Ireland,IE,IRL,Dublin,primary,592713,1372595407
Vladivostok,Vladivostok,43.1150,131.8853,Russia,RU,RUS,Primorskiy Kray,admin,591628,1643832017
Pereira,Pereira,4.8143,-75.6946,Colombia,CO,COL,Risaralda,admin,590554,1170386718
Gaza,Gaza,31.5069,34.4560,Gaza Strip,XG,XGZ,,primary,590481,1916116052
Zāhedān,Zahedan,29.5025,60.8558,Iran,IR,IRN,Sīstān va Balūchestān,admin,587730,1364072353
Shah Alam,Shah Alam,3.0667,101.5500,Malaysia,MY,MYS,Selangor,admin,584340,1458194263
Vilnius,Vilnius,54.6872,25.2800,Lithuania,LT,LTU,Vilniaus Miestas,primary,581475,1440887149
Kingston,Kingston,17.9714,-76.7931,Jamaica,JM,JAM,Kingston,primary,580000,1388709177
Al Mafraq,Al Mafraq,32.3399,36.2052,Jordan,JO,JOR,Al Mafraq,admin,580000,1400040712
Port Sudan,Port Sudan,19.6158,37.2164,Sudan,SD,SDN,Red Sea,admin,579942,1729710259
Nha Trang,Nha Trang,12.2450,109.1917,Vietnam,VN,VNM,Khánh Hòa,admin,579000,1704497901
Tuxtla,Tuxtla,16.7528,-93.1167,Mexico,MX,MEX,Chiapas,admin,578830,1484832519
Dehra Dūn,Dehra Dun,30.3450,78.0290,India,IN,IND,Uttarākhand,admin,578420,1356970407
Bremen,Bremen,53.0758,8.8072,Germany,DE,DEU,Bremen,admin,577026,1276376509
Mymensingh,Mymensingh,24.7504,90.3800,Bangladesh,BD,BGD,Mymensingh,admin,576927,1050399881
Iloilo,Iloilo,10.7200,122.5700,Philippines,PH,PHL,Iloilo,admin,574000,1608875987
Rabat,Rabat,34.0209,-6.8416,Morocco,MA,MAR,Rabat-Salé-Kénitra,primary,572717,1504023252
Kabinda,Kabinda,-6.1300,24.4800,Congo (Kinshasa),CD,COD,Lomami,admin,572000,1180751831
Kahramanmaraş,Kahramanmaras,37.5833,36.9333,Turkey,TR,TUR,Kahramanmaraş,admin,571266,1792726797
Irbid,Irbid,32.5500,35.8500,Jordan,JO,JOR,Irbid,admin,569068,1400221568
Yaroslavl,Yaroslavl,57.6167,39.8500,Russia,RU,RUS,Yaroslavskaya Oblast’,admin,567443,1643338528
Dresden,Dresden,51.0500,13.7400,Germany,DE,DEU,Saxony,admin,566222,1276561036
Des Moines,Des Moines,41.5725,-93.6105,United States,US,USA,Iowa,admin,560170,1840007069
Genoa,Genoa,44.4072,8.9340,Italy,IT,ITA,Liguria,admin,558745,1380716540
Herāt,Herat,34.3419,62.2031,Afghanistan,AF,AFG,Herāt,admin,556205,1004237782
Uyo,Uyo,5.0333,7.9275,Nigeria,NG,NGA,Akwa Ibom,admin,554906,1566061694
Hamadān,Hamadan,34.8064,48.5161,Iran,IR,IRN,Hamadān,admin,554406,1364126377
Chiclayo,Chiclayo,-6.7630,-79.8366,Peru,PE,PER,Lambayeque,admin,552508,1604799615
Palma,Palma,39.5667,2.6500,Spain,ES,ESP,Balearic Islands,admin,550000,1724728111
Lisbon,Lisbon,38.7122,-9.1340,Portugal,PT,PRT,Lisboa,primary,548703,1620619017
The Hague,The Hague,52.0800,4.3100,Netherlands,NL,NLD,Zuid-Holland,primary,548320,1528799905
Hannover,Hannover,52.3667,9.7167,Germany,DE,DEU,Lower Saxony,admin,548186,1276457707
Sevastopol,Sevastopol,44.6050,33.5225,Ukraine,UA,UKR,"Sevastopol, Misto",admin,547820,1804806030
Poznań,Poznan,52.4083,16.9336,Poland,PL,POL,Wielkopolskie,admin,546859,1616725607
Ibagué,Ibague,4.4333,-75.2333,Colombia,CO,COL,Tolima,admin,546003,1170245063
Tomsk,Tomsk,56.5000,84.9667,Russia,RU,RUS,Tomskaya Oblast’,admin,545391,1643258928
Kemerovo,Kemerovo,55.3667,86.0667,Russia,RU,RUS,Kemerovskaya Oblast’,admin,544600,1643216311
Valledupar,Valledupar,10.4833,-73.2500,Colombia,CO,COL,Cesar,admin,544134,1170481949
Muntinlupa City,Muntinlupa City,14.3800,121.0500,Philippines,PH,PHL,Muntinlupa,admin,543445,1608473406
Mbeya,Mbeya,-8.9000,33.4500,Tanzania,TZ,TZA,Mbeya,admin,541603,1834396594
An Nāşirīyah,An Nasiriyah,31.0439,46.2575,Iraq,IQ,IRQ,Dhī Qār,admin,541600,1368273311
Al Ḩillah,Al Hillah,32.4833,44.4333,Iraq,IQ,IRQ,Bābil,admin,541034,1368916692
El Geneina,El Geneina,13.4500,22.4400,Sudan,SD,SDN,West Darfur,admin,538390,1729642412
Santa Cruz,Santa Cruz,28.4667,-16.2500,Spain,ES,ESP,Canary Islands,admin,538000,1724813158
Agadir,Agadir,30.4214,-9.5831,Morocco,MA,MAR,Souss-Massa,admin,538000,1504116858
Orenburg,Orenburg,51.7833,55.1000,Russia,RU,RUS,Orenburgskaya Oblast’,admin,536862,1643685056
Kassala,Kassala,15.4500,36.4000,Sudan,SD,SDN,Kassala,admin,536009,1729157224
Salta,Salta,-24.7833,-65.4167,Argentina,AR,ARG,Salta,admin,535303,1032926124
Dispur,Dispur,26.1397,91.7925,India,IN,IND,Assam,admin,534872,1356960169
Beira,Beira,-19.8333,34.8500,Mozambique,MZ,MOZ,Sofala,admin,530604,1508407369
Yazd,Yazd,31.8822,54.3397,Iran,IR,IRN,Yazd,admin,529673,1364429875
Ardabīl,Ardabil,38.2517,48.2975,Iran,IR,IRN,Ardabīl,admin,529374,1364437616
Bandar ‘Abbās,Bandar `Abbas,27.1961,56.2878,Iran,IR,IRN,Hormozgān,admin,526648,1364120623
Van,Van,38.4942,43.3800,Turkey,TR,TUR,Van,admin,525016,1792940471
Port Said,Port Said,31.2625,32.3061,Egypt,EG,EGY,Būr Sa‘īd,admin,524433,1818628574
Agartala,Agartala,23.8314,91.2869,India,IN,IND,Tripura,admin,522613,1356148992
Arāk,Arak,34.0914,49.6933,Iran,IR,IRN,Markazī,admin,520944,1364624691
Lyon,Lyon,45.7600,4.8400,France,FR,FRA,Auvergne-Rhône-Alpes,admin,520774,1250196189
Ryazan,Ryazan,54.6300,39.7425,Russia,RU,RUS,Ryazanskaya Oblast’,admin,520509,1643205787
Al Fayyūm,Al Fayyum,29.3000,30.8333,Egypt,EG,EGY,Al Fayyūm,admin,519047,1818281002
Utsunomiya,Utsunomiya,36.5550,139.8825,Japan,JP,JPN,Tochigi,admin,518197,1392506125
Suez,Suez,29.9667,32.5333,Egypt,EG,EGY,As Suways,admin,516959,1818495972
Qaraghandy,Qaraghandy,49.8028,73.1056,Kazakhstan,KZ,KAZ,Qaraghandy,admin,515632,1398274508
Santa Marta,Santa Marta,11.2419,-74.2053,Colombia,CO,COL,Magdalena,admin,515556,1170715594
Samarkand,Samarkand,39.6547,66.9758,Uzbekistan,UZ,UZB,Samarqand,admin,513572,1860388706
Macapá,Macapa,0.0330,-51.0500,Brazil,BR,BRA,Amapá,admin,512902,1076189884
Benguela,Benguela,-12.5500,13.4167,Angola,AO,AGO,Benguela,admin,512886,1024141961
Cuito,Cuito,-12.3833,16.9333,Angola,AO,AGO,Bié,admin,512706,1024939858
Toulouse,Toulouse,43.6045,1.4440,France,FR,FRA,Occitanie,admin,511684,1250258110
Al ‘Amārah,Al `Amarah,31.8333,47.1500,Iraq,IQ,IRQ,Maysān,admin,511500,1368336235
Matsuyama,Matsuyama,33.8333,132.7667,Japan,JP,JPN,Ehime,admin,506743,1392220893
Jammu,Jammu,32.7300,74.8700,India,IN,IND,Jammu and Kashmīr,admin,502197,1356491738
Homyel’,Homyel',52.4453,30.9842,Belarus,BY,BLR,Homyel’skaya Voblasts’,admin,501102,1112580227
Farāh,Farah,32.3436,62.1194,Afghanistan,AF,AFG,Farāh,admin,500000,1004523791
Asaba,Asaba,6.1833,6.7333,Nigeria,NG,NGA,Delta,admin,500000,1566322425
El Fasher,El Fasher,13.6300,25.3500,Sudan,SD,SDN,North Darfur,admin,500000,1729372385
Harrisburg,Harrisburg,40.2752,-76.8843,United States,US,USA,Pennsylvania,admin,499494,1840001288
Lapu-Lapu City,Lapu-Lapu City,10.3127,123.9488,Philippines,PH,PHL,Lapu-Lapu,admin,497604,1608430676
Johor Bahru,Johor Bahru,1.4820,103.7281,Malaysia,MY,MYS,Johor,admin,497097,1458747615
Lipetsk,Lipetsk,52.6167,39.6000,Russia,RU,RUS,Lipetskaya Oblast’,admin,496403,1643772906
Cheboksary,Cheboksary,56.1500,47.2333,Russia,RU,RUS,Chuvashiya,admin,496350,1643163382
Nyala,Nyala,12.0500,24.8833,Sudan,SD,SDN,South Darfur,admin,492984,1729833248
Bissau,Bissau,11.8500,-15.5667,Guinea-Bissau,GW,GNB,Bissau,primary,492004,1624168850
Accra,Accra,5.5461,-0.2067,Ghana,GH,GHA,Greater Accra,primary,491817,1288299415
Kota Bharu,Kota Bharu,6.1200,102.2300,Malaysia,MY,MYS,Kelantan,admin,491237,1458150101
‘Ajmān,`Ajman,25.4136,55.4456,United Arab Emirates,AE,ARE,‘Ajmān,admin,490035,1784337875
Kaliningrad,Kaliningrad,54.7003,20.4531,Russia,RU,RUS,Kaliningradskaya Oblast’,admin,489584,1643178106
Penza,Penza,53.2000,45.0000,Russia,RU,RUS,Penzenskaya Oblast’,admin,488299,1643492830
Malatya,Malatya,38.3486,38.3194,Turkey,TR,TUR,Malatya,admin,485484,1792485155
Garoowe,Garoowe,8.4000,48.4833,Somalia,SO,SOM,Nugaal,admin,485000,1706512367
Cuiabá,Cuiaba,-15.5958,-56.0969,Brazil,BR,BRA,Mato Grosso,admin,483346,1076112309
Az Zarqā’,Az Zarqa',32.0833,36.1000,Jordan,JO,JOR,Az Zarqā’,admin,481300,1400161837
Valletta,Valletta,35.8983,14.5125,Malta,MT,MLT,Valletta,primary,480134,1470574399
Kolwezi,Kolwezi,-10.7167,25.4667,Congo (Kinshasa),CD,COD,Lualaba,admin,480000,1180380965
Sylhet,Sylhet,24.9000,91.8667,Bangladesh,BD,BGD,Sylhet,admin,479837,1050646703
Asunción,Asuncion,-25.2945,-57.6435,Paraguay,PY,PRY,Asunción,primary,477346,1600057911
Bratislava,Bratislava,48.1447,17.1128,Slovakia,SK,SVK,Bratislava,primary,475503,1703195001
Ōita,Oita,33.2333,131.6067,Japan,JP,JPN,Ōita,admin,474804,1392081193
Piura,Piura,-5.2000,-80.6333,Peru,PE,PER,Piura,admin,473025,1604331641
Kirov,Kirov,58.6000,49.6833,Russia,RU,RUS,Kirovskaya Oblast’,admin,471754,1643106064
Morogoro,Morogoro,-6.8242,37.6633,Tanzania,TZ,TZA,Morogoro,admin,471409,1834185429
San Juan,San Juan,-31.5342,-68.5261,Argentina,AR,ARG,San Juan,admin,471389,1032869625
Mykolaiv,Mykolaiv,46.9750,31.9950,Ukraine,UA,UKR,Mykolaivska Oblast,admin,470011,1804398395
Mazār-e Sharīf,Mazar-e Sharif,36.7000,67.1167,Afghanistan,AF,AFG,Balkh,admin,469247,1004436363
Ba‘qūbah,Ba`qubah,33.7447,44.6436,Iraq,IQ,IRQ,Diyālá,admin,467900,1368444902
Tel Aviv-Yafo,Tel Aviv-Yafo,32.0800,34.7800,Israel,IL,ISR,Tel Aviv,admin,467875,1376401542
Little Rock,Little Rock,34.7256,-92.3577,United States,US,USA,Arkansas,admin,467846,1840015509
Buraydah,Buraydah,26.3664,43.9628,Saudi Arabia,SA,SAU,Al Qaşīm,admin,467410,1682470726
Kupang,Kupang,-10.1702,123.6077,Indonesia,ID,IDN,Nusa Tenggara Timur,admin,466632,1360696757
Tula,Tula,54.2000,37.6167,Russia,RU,RUS,Tul’skaya Oblast’,admin,466609,1643255206
Nakhon Ratchasima,Nakhon Ratchasima,14.9806,102.1000,Thailand,TH,THA,Nakhon Ratchasima,admin,466098,1764752197
Astrakhan,Astrakhan,46.3500,48.0350,Russia,RU,RUS,Astrakhanskaya Oblast’,admin,465524,1643407929
Angeles City,Angeles City,15.1472,120.5847,Philippines,PH,PHL,Angeles,admin,462928,1608036027
Kanazawa,Kanazawa,36.5611,136.6564,Japan,JP,JPN,Ishikawa,admin,462479,1392684679
Manado,Manado,1.4931,124.8413,Indonesia,ID,IDN,Sulawesi Utara,admin,461636,1360771278
Madison,Madison,43.0822,-89.3930,United States,US,USA,Wisconsin,admin,460255,1840002915
Juba,Juba,4.8300,31.5800,South Sudan,SS,SSD,Central Equatoria,primary,459342,1728444337
Ta‘izz,Ta`izz,13.5789,44.0219,Yemen,YE,YEM,Ta‘izz,admin,458789,1887324526
Marikina City,Marikina City,14.6500,121.1000,Philippines,PH,PHL,Marikina,admin,456059,1608000077
Melaka,Melaka,2.2064,102.2465,Malaysia,MY,MYS,Melaka,admin,455300,1458467506
Manizales,Manizales,5.0675,-75.5100,Colombia,CO,COL,Caldas,admin,454494,1170930654
Hsinchu,Hsinchu,24.8167,120.9833,Taiwan,TW,TWN,Hsinchu,admin,453536,1158276420
Batman,Batman,37.8870,41.1320,Turkey,TR,TUR,Batman,admin,452157,1792630786
Kota Kinabalu,Kota Kinabalu,5.9800,116.1100,Malaysia,MY,MYS,Sabah,admin,452058,1458441859
Stavropol,Stavropol,45.0500,41.9833,Russia,RU,RUS,Stavropol’skiy Kray,admin,450680,1643947228
Bắc Giang,Bac Giang,21.2667,106.2000,Vietnam,VN,VNM,Bắc Giang,admin,450000,1704256754
Boise,Boise,43.6005,-116.2308,United States,US,USA,Idaho,admin,449428,1840027142
Zürich,Zurich,47.3744,8.5411,Switzerland,CH,CHE,Zürich,admin,448664,1756539143
Constantine,Constantine,36.3500,6.6000,Algeria,DZ,DZA,Constantine,admin,448374,1012275076
Nam Định,Nam Dinh,20.4200,106.1683,Vietnam,VN,VNM,Nam Định,admin,448225,1704906277
Rājshāhi,Rajshahi,24.3667,88.6000,Bangladesh,BD,BGD,Rājshāhi,admin,448087,1050547831
Matadi,Matadi,-5.8167,13.4833,Congo (Kinshasa),CD,COD,Kongo Central,admin,448000,1180529604
Ado-Ekiti,Ado-Ekiti,7.6211,5.2214,Nigeria,NG,NGA,Ekiti,admin,446749,1566196391
Santiago de Cuba,Santiago de Cuba,20.0217,-75.8294,Cuba,CU,CUB,Santiago de Cuba,admin,444851,1192766111
Taoyuan District,Taoyuan District,24.9913,121.3143,Taiwan,TW,TWN,Taoyuan,admin,443273,1158127875
Korhogo,Korhogo,9.4578,-5.6294,Côte d’Ivoire,CI,CIV,Savanes,admin,440926,1384205840
Pasay City,Pasay City,14.5439,120.9950,Philippines,PH,PHL,Pasay,admin,440656,1608448280
Halifax,Halifax,44.6475,-63.5906,Canada,CA,CAN,Nova Scotia,admin,439819,1124130981
Ulan-Ude,Ulan-Ude,51.8333,107.6000,Russia,RU,RUS,Buryatiya,admin,439128,1643774900
Kursk,Kursk,51.7167,36.1833,Russia,RU,RUS,Kurskaya Oblast’,admin,436678,1643011077
Jeju,Jeju,33.5130,126.5230,"Korea, South",KR,KOR,Jeju,admin,435413,1410364424
Bandung,Bandung,-6.9120,107.6097,Indonesia,ID,IDN,Jawa Barat,admin,432557,1360313023
Windhoek,Windhoek,-22.5700,17.0836,Namibia,NA,NAM,Khomas,primary,431000,1516802003
Ismailia,Ismailia,30.5833,32.2667,Egypt,EG,EGY,Al Ismā‘īlīyah,admin,429465,1818532766
Cusco,Cusco,-13.5250,-71.9722,Peru,PE,PER,Cusco,admin,428450,1604162901
Sokoto,Sokoto,13.0833,5.2500,Nigeria,NG,NGA,Sokoto,admin,427760,1566574518
Aomori,Aomori,40.8228,140.7469,Japan,JP,JPN,Aomori,admin,425962,1392083898
Tepic,Tepic,21.5083,-104.8931,Mexico,MX,MEX,Nayarit,admin,425942,1484433877
Mandaluyong City,Mandaluyong City,14.5800,121.0300,Philippines,PH,PHL,Mandaluyong,admin,425758,1608166320
Burco,Burco,9.5221,45.5336,Somalia,SO,SOM,Togdheer,admin,425000,1706322754
Tver,Tver,56.8625,35.9242,Russia,RU,RUS,Tverskaya Oblast’,admin,424969,1643456559
Xalapa,Xalapa,19.5400,-96.9275,Mexico,MX,MEX,Veracruz,admin,424755,1484334948
Yogyakarta,Yogyakarta,-7.8014,110.3644,Indonesia,ID,IDN,Yogyakarta,admin,422732,1360384833
Ciudad Bolívar,Ciudad Bolivar,8.1219,-63.5500,Venezuela,VE,VEN,Bolívar,admin,422578,1862318264
Skopje,Skopje,41.9961,21.4317,North Macedonia,MK,MKD,Skopje,primary,422540,1807600615
Daloa,Daloa,6.8900,-6.4500,Côte d’Ivoire,CI,CIV,Sassandra-Marahoué,admin,421871,1384564974
Hpa-An,Hpa-An,16.8906,97.6333,Burma,MM,MMR,Kayin State,admin,421525,1104494124
Thái Nguyên,Thai Nguyen,21.6000,105.8500,Vietnam,VN,VNM,Thái Nguyên,admin,420000,1704613715
Seremban,Seremban,2.7105,101.9400,Malaysia,MY,MYS,Negeri Sembilan,admin,419536,1458051507
Tirana,Tirana,41.3272,19.8186,Albania,AL,ALB,Tiranë,primary,418495,1008162156
El Obeid,El Obeid,13.1833,30.2167,Sudan,SD,SDN,North Kordofan,admin,418280,1729215531
Takamatsu,Takamatsu,34.3500,134.0500,Japan,JP,JPN,Kagawa,admin,417814,1392427161
Ajdābiyā,Ajdabiya,30.7700,20.2200,Libya,LY,LBY,Al Wāḩāt,admin,416000,1434401280
Callao,Callao,-12.0522,-77.1392,Peru,PE,PER,Callao,admin,415888,1604422141
Việt Trì,Viet Tri,21.3000,105.4333,Vietnam,VN,VNM,Phú Thọ,admin,415280,1704332956
Boa Vista,Boa Vista,2.8200,-60.6719,Brazil,BR,BRA,Roraima,admin,413486,1076621300
Banjul,Banjul,13.4581,-16.5786,"Gambia, The",GM,GMB,Banjul,primary,413397,1270723713
Jayapura,Jayapura,-2.5330,140.7170,Indonesia,ID,IDN,Papua,admin,413283,1360517692
Toyama,Toyama,36.6959,137.2137,Japan,JP,JPN,Toyama,admin,413028,1392000560
Sanandaj,Sanandaj,35.3114,46.9961,Iran,IR,IRN,Kordestān,admin,412767,1364178783
Khon Kaen,Khon Kaen,16.4333,102.8333,Thailand,TH,THA,Khon Kaen,admin,412758,1764003406
Pasto,Pasto,1.2078,-77.2772,Colombia,CO,COL,Nariño,admin,410835,1170320545
Kisumu,Kisumu,-0.1000,34.7500,Kenya,KE,KEN,Kisumu,admin,409928,1404511920
Mataram,Mataram,-8.5833,116.1167,Indonesia,ID,IDN,Nusa Tenggara Barat,admin,408900,1360021952
Santa Fe,Santa Fe,-31.6333,-60.7000,Argentina,AR,ARG,Santa Fe,admin,405683,1032817575
Cumaná,Cumana,10.4564,-64.1675,Venezuela,VE,VEN,Sucre,admin,405626,1862583279
Nagasaki,Nagasaki,32.7447,129.8736,Japan,JP,JPN,Nagasaki,admin,404656,1392162566
Al Ḩudaydah,Al Hudaydah,14.8022,42.9511,Yemen,YE,YEM,Al Ḩudaydah,admin,404062,1887984890
Qazvīn,Qazvin,36.2886,50.0069,Iran,IR,IRN,Qazvīn,admin,402748,1364073420
Brno,Brno,49.1925,16.6083,Czechia,CZ,CZE,Jihomoravský Kraj,admin,400566,1203676514
Öskemen,Oskemen,49.9833,82.6167,Kazakhstan,KZ,KAZ,East Kazakhstan,admin,400142,1398371414
Gifu,Gifu,35.4232,136.7608,Japan,JP,JPN,Gifu,admin,400118,1392097787
Montería,Monteria,8.7500,-75.8833,Colombia,CO,COL,Córdoba,admin,400000,1170855299
Hatay,Hatay,36.2025,36.1606,Turkey,TR,TUR,Hatay,admin,399045,1792115763
Luhansk,Luhansk,48.5678,39.3031,Ukraine,UA,UKR,Luhanska Oblast,admin,397677,1804688214
Miyazaki,Miyazaki,31.9078,131.4203,Japan,JP,JPN,Miyazaki,admin,397476,1392216224
Barinas,Barinas,8.6333,-70.2000,Venezuela,VE,VEN,Barinas,admin,397279,1862647790
Szczecin,Szczecin,53.4325,14.5481,Poland,PL,POL,Zachodniopomorskie,admin,396168,1616256546
Tanga,Tanga,-5.0742,39.0992,Tanzania,TZ,TZA,Tanga,admin,393429,1834004568
Saurimo,Saurimo,-9.6500,20.4000,Angola,AO,AGO,Lunda-Sul,admin,393000,1024326839
Yola,Yola,9.2300,12.4600,Nigeria,NG,NGA,Adamawa,admin,392854,1566782065
Ad Dīwānīyah,Ad Diwaniyah,31.9892,44.9247,Iraq,IQ,IRQ,Al Qādisīyah,admin,391600,1368864006
San-Pédro,San-Pedro,4.7704,-6.6400,Côte d’Ivoire,CI,CIV,Bas-Sassandra,admin,390654,1384436547
Asyūţ,Asyut,27.1869,31.1714,Egypt,EG,EGY,Asyūţ,admin,389307,1818456592
Bologna,Bologna,44.4939,11.3428,Italy,IT,ITA,Emilia-Romagna,admin,387971,1380202039
Aqtöbe,Aqtobe,50.2836,57.2297,Kazakhstan,KZ,KAZ,Aqtöbe,admin,387807,1398602716
Elazığ,Elazig,38.6744,39.2228,Turkey,TR,TUR,Elazığ,admin,387072,1792156766
Zanjān,Zanjan,36.6864,48.4953,Iran,IR,IRN,Zanjān,admin,386851,1364312712
Manisa,Manisa,38.6144,27.4292,Turkey,TR,TUR,Manisa,admin,385452,1792804328
Tarlac City,Tarlac City,15.4869,120.5900,Philippines,PH,PHL,Tarlac,admin,385398,1608237027
Christchurch,Christchurch,-43.5311,172.6361,New Zealand,NZ,NZL,Canterbury,admin,383200,1554377228
Gusau,Gusau,12.1500,6.6667,Nigeria,NG,NGA,Zamfara,admin,383162,1566383682
Kanifing,Kanifing,13.4475,-16.6725,"Gambia, The",GM,GMB,Kanifing,admin,382096,1270000000
Canberra,Canberra,-35.2931,149.1269,Australia,AU,AUS,Australian Capital Territory,primary,381488,1036142029
Malabon,Malabon,14.6600,120.9600,Philippines,PH,PHL,Malabon,admin,380522,1608045841
Neiva,Neiva,2.9345,-75.2809,Colombia,CO,COL,Huila,admin,380019,1170159963
Hà Tĩnh,Ha Tinh,18.3333,105.9000,Vietnam,VN,VNM,Hà Tĩnh,admin,380000,1704544061
Huancayo,Huancayo,-12.0667,-75.2167,Peru,PE,PER,Junín,admin,378203,1604249985
Iquitos,Iquitos,-3.7500,-73.2500,Peru,PE,PER,Loreto,admin,377609,1604493809
Mamou,Mamou,10.3833,-12.0833,Guinea,GN,GIN,Mamou,admin,376269,1324990909
Bryansk,Bryansk,53.2425,34.3667,Russia,RU,RUS,Bryanskaya Oblast’,admin,373310,1643208827
Butuan,Butuan,8.9480,125.5430,Philippines,PH,PHL,Butuan,admin,372910,1608000722
Ambon,Ambon,-3.6967,128.1783,Indonesia,ID,IDN,Maluku,admin,372249,1360756802
Nagano,Nagano,36.6486,138.1947,Japan,JP,JPN,Nagano,admin,367184,1392603439
Baguio City,Baguio City,16.4119,120.5933,Philippines,PH,PHL,Baguio,admin,366358,1608164766
Sivas,Sivas,39.7500,37.0167,Turkey,TR,TUR,Sivas,admin,365274,1792938326
Rio Branco,Rio Branco,-9.9781,-67.8117,Brazil,BR,BRA,Acre,admin,364756,1076391263
Mandaue City,Mandaue City,10.3300,123.9300,Philippines,PH,PHL,Mandaue,admin,364116,1608794590
Kocaeli,Kocaeli,40.7625,29.9175,Turkey,TR,TUR,Kocaeli,admin,363416,1792965114
Victoria,Victoria,48.4283,-123.3647,Canada,CA,CAN,British Columbia,admin,363222,1124147219
Wŏnsan,Wonsan,39.1475,127.4461,"Korea, North",KP,PRK,Kangwŏn,admin,363127,1408692125
Iligan,Iligan,8.2300,124.2500,Philippines,PH,PHL,Iligan,admin,363115,1608000268
Trenton,Trenton,40.2237,-74.7641,United States,US,USA,New Jersey,admin,362501,1840001383
Keelung,Keelung,25.1333,121.7333,Taiwan,TW,TWN,Keelung,admin,362487,1158820647
Geita,Geita,-2.8714,32.2294,Tanzania,TZ,TZA,Geita,admin,361671,1834469543
Ivanovo,Ivanovo,56.9967,40.9819,Russia,RU,RUS,Ivanovskaya Oblast’,admin,361644,1643297945
Cuenca,Cuenca,-2.8974,-79.0045,Ecuador,EC,ECU,Azuay,admin,361524,1218041020
Hrodna,Hrodna,53.6667,23.8333,Belarus,BY,BLR,Hrodzyenskaya Voblasts’,admin,361115,1112187197
Florence,Florence,43.7714,11.2542,Italy,IT,ITA,Tuscany,admin,360930,1380726561
Bengkulu,Bengkulu,-3.7956,102.2592,Indonesia,ID,IDN,Bengkulu,admin,360495,1360191448
Malmö,Malmo,55.5833,13.0333,Sweden,SE,SWE,Skåne,admin,360249,1752705818
Utrecht,Utrecht,52.0908,5.1217,Netherlands,NL,NLD,Utrecht,admin,359370,1528871692
Palu,Palu,-0.8950,119.8594,Indonesia,ID,IDN,Sulawesi Tengah,admin,359350,1360518272
Umuahia,Umuahia,5.5333,7.4833,Nigeria,NG,NGA,Abia,admin,359230,1566217980
Vitsyebsk,Vitsyebsk,55.1917,30.2056,Belarus,BY,BLR,Vitsyebskaya Voblasts’,admin,358395,1112480679
Taraz,Taraz,42.9000,71.3667,Kazakhstan,KZ,KAZ,Zhambyl,admin,357795,1398626276
Luena,Luena,-11.7918,19.9062,Angola,AO,AGO,Moxico,admin,357413,1024283760
Gonaïves,Gonaives,19.4456,-72.6883,Haiti,HT,HTI,Artibonite,admin,356324,1332384588
Vinnytsia,Vinnytsia,49.2333,28.4833,Ukraine,UA,UKR,Vinnytska Oblast,admin,356303,1804658571
Gedaref,Gedaref,14.0333,35.3833,Sudan,SD,SDN,Gedaref,admin,354927,1729215057
San Fernando,San Fernando,15.0300,120.6800,Philippines,PH,PHL,Pampanga,admin,354666,1608862124
Pokhara,Pokhara,28.2097,83.9853,Nepal,NP,NPL,Gaṇḍakī,admin,353841,1524416084
Villahermosa,Villahermosa,17.9892,-92.9281,Mexico,MX,MEX,Tabasco,admin,353577,1484460894
Wakayama,Wakayama,34.2333,135.1667,Japan,JP,JPN,Wakayama,admin,353299,1392907296
Mahilyow,Mahilyow,53.9167,30.3500,Belarus,BY,BLR,Mahilyowskaya Voblasts’,admin,353110,1112518993
Osh,Osh,40.5333,72.7833,Kyrgyzstan,KG,KGZ,Osh,admin,353080,1417797596
Corrientes,Corrientes,-27.4833,-58.8167,Argentina,AR,ARG,Corrientes,admin,352646,1032173097
Nara,Nara,34.6844,135.8050,Japan,JP,JPN,Nara,admin,352377,1392520831
Vladimir,Vladimir,56.1286,40.4058,Russia,RU,RUS,Vladimirskaya Oblast’,admin,352347,1643712167
Sinŭiju,Sinuiju,40.1000,124.4000,"Korea, North",KP,PRK,P’yŏngbuk,admin,352000,1408740449
Arkhangelsk,Arkhangelsk,64.5431,40.5375,Russia,RU,RUS,Arkhangel’skaya Oblast’,admin,351488,1643797198
Batangas,Batangas,13.8300,121.0000,Philippines,PH,PHL,Batangas,admin,351437,1608417616
Varna,Varna,43.2114,27.9111,Bulgaria,BG,BGR,Varna,admin,350745,1100789115
Semey,Semey,50.4333,80.2667,Kazakhstan,KZ,KAZ,Abay,admin,350201,1398405657
Holguín,Holguin,20.8872,-76.2631,Cuba,CU,CUB,Holguín,admin,350191,1192920574
Antofagasta,Antofagasta,-23.6500,-70.4000,Chile,CL,CHL,Antofagasta,admin,348517,1152734289
Plovdiv,Plovdiv,42.1434,24.7510,Bulgaria,BG,BGR,Plovdiv,admin,346893,1100436706
Honolulu,Honolulu,21.3294,-157.8460,United States,US,USA,Hawaii,admin,346323,1840013305
Wad Medani,Wad Medani,14.4000,33.5100,Sudan,SD,SDN,Gezira,admin,345290,1729581572
Brest,Brest,52.1347,23.6569,Belarus,BY,BLR,Brestskaya Voblasts’,admin,344470,1112896927
Ōtsu,Otsu,35.0167,135.8500,Japan,JP,JPN,Shiga,admin,343991,1392164106
Maseru,Maseru,-29.3100,27.4800,Lesotho,LS,LSO,Maseru,primary,343541,1426977668
Pavlodar,Pavlodar,52.3000,76.9500,Kazakhstan,KZ,KAZ,Pavlodar,admin,343091,1398790087
Chon Buri,Chon Buri,13.3611,100.9850,Thailand,TH,THA,Chon Buri,admin,342959,1764202077
Naga City,Naga City,13.6244,123.1864,Philippines,PH,PHL,Naga,admin,342769,1608775993
Florianópolis,Florianopolis,-27.5933,-48.5530,Brazil,BR,BRA,Santa Catarina,admin,342315,1076190259
Sfax,Sfax,34.7400,10.7600,Tunisia,TN,TUN,Sfax,admin,341999,1788741658
Jeonju,Jeonju,35.8167,127.1500,"Korea, South",KR,KOR,Jeonbuk,admin,341545,1410494847
